stop_id,stop_name,stop_desc,stop_lat,stop_lon,zone_id
00001,"7th St Station",,35.227375,-80.838088,
00002,"CTC Station",,35.225336,-80.840975,
00003,"3rd/ Convention Center Station",,35.223631,-80.843237,
00004,"Stonewall Station",,35.221319,-80.847066,
00005,"Carson Station",,35.218822,-80.850947,
00006,"Bland Station",,35.215787,-80.855346,
00007,"East/ West Station",,35.212117,-80.859140,
00008,"New Bern Station",,35.199887,-80.869042,
00009,"Scaleybark Station",,35.190842,-80.875075,
00010,"Woodlawn Station",,35.175789,-80.879063,
00011,"Tyvola Station",,35.162948,-80.877570,
00012,"Archdale Station",,35.152897,-80.877485,
00013,"Arrowood Station",,35.135606,-80.876364,
00014,"Sharon Rd West Station",,35.119450,-80.881962,
00015,"I-485 Station",,35.107087,-80.882925,
00016,"9th Street Station",,35.229656,-80.835022,
00040,"12th St & Davidson St",,35.229429,-80.829693,
00081,"Parkwood Station",,35.236921,-80.823290,
00082,"25th St Station",,35.241703,-80.817147,
00083,"36th St Station",,35.249085,-80.806364,
00084,"Sugar Creek Station",,35.251423,-80.792853,
00085,"Old Concord Road Station",,35.259934,-80.772790,
00086,"Tom Hunter Station",,35.277951,-80.766283,
00087,"University City Blvd Station",,35.286787,-80.760864,
00088,"McCullough Station",,35.301124,-80.752875,
00089,"JW Clay Blvd Station",,35.310742,-80.745189,
00090,"UNC Charlotte Station",,35.312136,-80.733749,
00120,"Airport Dr & Stonewall Jackson Home Dr",,35.204791,-80.927950,
00126,"Airport Dr & Ashley Cir",,35.207940,-80.929098,
00127,"Airport Dr & Wilson Air Center Entrance",,35.208967,-80.928956,
00140,"Airport Dr & Sentry Post Rd",,35.204702,-80.927995,
00160,"Central Ave & Reddman Rd",,35.205480,-80.750199,
00170,"Albemarle Rd & Jenkins Dr",,35.203334,-80.743471,
00180,"Albemarle Rd & Executive Center Dr",,35.203106,-80.743111,
00183,"Wachovia CIC -Entrance 1A",,35.313753,-80.772557,
00200,"Graham St & Equipment Dr",,35.279671,-80.806609,
00210,"Albemarle Rd & Farm Pond Ln",,35.203087,-80.737700,
00230,"Albemarle Rd & Winterhaven Dr",,35.202746,-80.734891,
00240,"Albemarle Rd & Winterhaven Dr",,35.202986,-80.735569,
00250,"Albemarle Rd & Regal Oaks Dr",,35.202501,-80.731293,
00260,"Albemarle Rd & Regal Oaks Dr",,35.202699,-80.731277,
00270,"Albemarle Rd & WT Harris Blvd",,35.202460,-80.728142,
00280,"Albemarle Rd & WT Harris Blvd",,35.202292,-80.728607,
00285,"Albemarle Rd & Lawyers Rd Park and Ride",,35.203980,-80.724266,
00300,"Albemarle Rd & Lake Forest Rd East",,35.204949,-80.718297,
00320,"Albemarle Rd & Lynton Blvd",,35.207948,-80.708610,
00330,"Albemarle Rd & Olde Savannah Rd",,35.210402,-80.699484,
00340,"Albemarle Rd & Dwightware Blvd",,35.211493,-80.690836,
00360,"Alleghany St @ 1335",,35.237755,-80.891235,
00400,"Alleghany St @ Phillip Berry Academy",,35.237786,-80.891189,
00410,"Ashley Rd & Alleghany St",,35.240269,-80.897239,
00520,"Amay James Ave & Caronia St",,35.206802,-80.901007,
00525,"Amay James Ave @ 3133",,35.205617,-80.900635,
00550,"Amay James Ave & West Blvd",,35.210633,-80.901671,
00560,"Amay James Ave @ 2948",,35.209405,-80.901453,
00570,"Amay James Ave @ 3006",,35.208606,-80.901313,
00575,"Amay James Ave @ across 3133",,35.205524,-80.900754,
00580,"Anderson St & Tappan Pl",,35.243380,-80.793453,
00590,"Anderson St & The Plaza",,35.243322,-80.793288,
00600,"Anderson St & Byrnes St",,35.242507,-80.791890,
00610,"Anderson St & Hampshire Pl",,35.242188,-80.790965,
00620,"Anderson St & Hampshire Pl",,35.242201,-80.790677,
00630,"Anderson St & Eastwood Dr",,35.242055,-80.789029,
00640,"Anderson St & Eastwood Dr",,35.241999,-80.789220,
00670,"Arboretum Center Dr & Providence Rd",,35.097796,-80.779937,
00720,"Arrowhead Dr & Countryside Dr",,35.271372,-80.769666,
00750,"Arrowhead Dr & Elgywood Ln",,35.271276,-80.771512,
00760,"Arrowood Rd & Windsong Dr",,35.134176,-80.899621,
00770,"Arrowood Rd & Forrest Point Blvd",,35.135747,-80.903040,
00790,"Arrowood Rd & Arrowpoint Blvd",,35.140134,-80.912853,
00795,"Arrowood Rd & Microsoft Way",,35.142829,-80.918684,
00810,"Arrowood Rd & Royal Point Dr",,35.145040,-80.922727,
00930,"Arrowood Rd & Fawnbrook Ln",,35.134557,-80.900202,
00960,"Arrowood Rd & Forest Point Blvd",,35.135972,-80.903219,
01000,"Arrowood Rd & Red Oak Blvd",,35.139226,-80.910361,
01001,"Arrowood Rd & Southern Pine Blvd",,35.139018,-80.910437,
01020,"Arrowood Rd & Arrowpoint Blvd",,35.140563,-80.913193,
01030,"Arrowood Rd & Crescent Executive Dr",,35.143127,-80.918572,
01100,"Arrowood Rd & Altacrest Pl",,35.146012,-80.924174,
01110,"Arrowood Rd & Tryon St",,35.146358,-80.925247,
01170,"Ashley Rd & Freedom Dr",,35.246262,-80.892736,
01180,"Tuckaseegee Rd & Freedom Dr",,35.246170,-80.892613,
01190,"Ashley Rd & Tuckaseegee Rd",,35.244198,-80.895512,
01200,"Ashley Rd & Freedom Dr",,35.244109,-80.895235,
01210,"Ashley Rd & Tuckaseegee Rd",,35.243698,-80.896592,
01220,"Ashley Rd & Scott Futrell Dr",,35.241083,-80.897047,
01230,"Ashley & Allegany",,35.239618,-80.897207,
01240,"Ashley Rd & Alleghany St",,35.239139,-80.897075,
01260,"Ashley & Allegany",,35.237910,-80.897147,
01270,"Ashley Rd & Alleghany St",,35.237569,-80.897293,
01290,"Ashley Rd & Bullard St",,35.235587,-80.897016,
01300,"Ashley Rd & Bullard St",,35.235597,-80.897057,
01310,"Ashley Rd & Alleghany St",,35.237879,-80.897143,
01330,"Ashley Rd & Kempton Pl",,35.233800,-80.895842,
01340,"Ashley Rd & Kempton Pl",,35.233520,-80.895778,
01350,"Ashley Rd & Meredith Ave",,35.229182,-80.892871,
01370,"Central Ave & Reddman Rd",,35.204859,-80.749735,
01380,"Ashley Rd & Greenland Ave",,35.225482,-80.890484,
01450,"Baldwin Ave & Ellison St",,35.207867,-80.834610,
01460,"Baldwin Ave & Kings Dr",,35.207263,-80.835319,
01550,"Barclay Downs Dr & Morrison Blvd",,35.156526,-80.836784,
01570,"Barclay Downs Dr & Runnymede Ln",,35.165433,-80.836011,
01600,"Barclay Downs Dr & Carnegie Blvd",,35.155397,-80.836203,
01610,"Barclay Downs Dr & Carnegie Blvd",,35.153567,-80.836001,
01630,"Bardot Dr & Milan Rd East",,35.286845,-80.871815,
01650,"Bardot Dr & Faggan Way",,35.288425,-80.870310,
01670,"Bardot Dr & Dedmon Dr",,35.289323,-80.869507,
01760,"Barclay Downs Dr & Ferncliff Rd",,35.164725,-80.836155,
01790,"Barclay Downs Dr & Morrison Blvd",,35.156302,-80.836361,
01800,"Barclay Downs Dr & Bulfinch Rd",,35.152351,-80.836465,
01990,"Barrington Dr & Somersworth Dr",,35.256969,-80.752031,
02010,"Barrington Dr & Lyndeboro Dr",,35.255050,-80.750324,
02011,"Barrington Dr & Lyndeboro Dr",,35.254959,-80.750162,
02040,"Barrington Dr & Craftsbury Dr",,35.253646,-80.749205,
02080,"Barrington Dr & The Plaza",,35.251426,-80.747446,
02100,"Barrington Dr & The Plaza",,35.250825,-80.747021,
02110,"Barrington Dr & The Plaza",,35.250577,-80.746664,
02120,"Barrington Dr & Montego Dr",,35.249663,-80.746068,
02130,"Barrington Dr & Montego Dr",,35.249458,-80.746134,
02140,"Barrington Dr & Rosecran Dr",,35.246108,-80.745168,
02150,"Barrington Dr & Markway Dr",,35.242461,-80.744671,
02170,"Barrington Dr & Markway Dr",,35.242332,-80.744454,
02180,"Barrington Dr & Delivau Dr",,35.240173,-80.743739,
02190,"Barrington Dr & Milton Rd",,35.238249,-80.743118,
02240,"Baxter St & Torrence St",,35.209344,-80.833227,
02270,"Bealer Rd & Hovis Rd",,35.269466,-80.899488,
02280,"Bealer Rd & Terminal St",,35.269235,-80.901419,
02290,"Bealer Rd & Exchange St",,35.269328,-80.904776,
02370,"Beatties Ford Rd & 5th St",,35.242893,-80.858482,
02380,"Beatties Ford Rd & 5th St",,35.242903,-80.858341,
02390,"Beatties Ford Rd & Dixon St",,35.244074,-80.857993,
02400,"Beatties Ford Rd & Dixon St",,35.244744,-80.857523,
02420,"Beatties Ford Rd & French St",,35.247258,-80.856813,
02430,"Beatties Ford Rd & Cemetery St",,35.247948,-80.856591,
02440,"Beatties Ford Rd & Cemetery St",,35.248612,-80.856663,
02470,"Beatties Ford Rd & Sanders Ave",,35.252103,-80.856120,
02480,"Beatties Ford Rd & Sanders Ave",,35.252219,-80.856223,
02500,"Beatties Ford Rd & Oaklawn Ave",,35.253317,-80.855986,
02510,"Beatties Ford Rd & Dundeen St",,35.254578,-80.855831,
02530,"Beatties Ford Rd & Celia Ave",,35.256434,-80.855726,
02540,"Beatties Ford Rd & Russell Ave",,35.256755,-80.855613,
02550,"Beatties Ford Rd & Estelle St",,35.258238,-80.855509,
02552,"Beatties Ford Rd & St Paul St",,35.257833,-80.855400,
02570,"Beatties Ford Rd & St Mark St",,35.260153,-80.855184,
02580,"Beatties Ford Rd & Hildebrand St",,35.260173,-80.855262,
02600,"Beatties Ford Rd & LaSalle St",,35.263444,-80.854696,
02610,"Beatties Ford Rd & LaSalle St",,35.263379,-80.854521,
02630,"Beatties Ford Rd & Keller Ave",,35.265622,-80.854257,
02640,"Beatties Ford Rd & Holly St",,35.266724,-80.853873,
02660,"Beatties Ford Rd & Gilbert St",,35.267716,-80.853913,
02670,"Beatties Ford Rd & Montana Dr",,35.267783,-80.854025,
02680,"Beatties Ford Rd & Rosa Parks Pl (Bay B)",,35.273669,-80.854567,
02720,"Beatties Ford Rd & B Ave",,35.275149,-80.854655,
02730,"Beatties Ford Rd & Hoskins Rd",,35.275405,-80.854969,
02740,"Beatties Ford Rd & Lynchester Pl",,35.276924,-80.855546,
02750,"Beatties Ford Rd & Lynchester Pl",,35.276908,-80.855348,
02760,"Beatties Ford Rd & Fairdale Dr",,35.278921,-80.856007,
02770,"Beatties Ford Rd & McAllister Dr",,35.280941,-80.856677,
02771,"Beatties Ford Rd & Friendship Village Pl",,35.279275,-80.855992,
02772,"Beatties Ford Rd & McAllister Dr",,35.281209,-80.856589,
02780,"Beatties Ford Rd & Cindy Ln",,35.282649,-80.857165,
02790,"Beatties Ford Rd & Griers Grove Rd",,35.283086,-80.857523,
02800,"Beatties Ford Rd @ 3640",,35.284017,-80.857695,
02810,"Beatties Ford Rd @ 3713",,35.285829,-80.858518,
02820,"Beatties Ford Rd @ 3738",,35.285816,-80.858320,
02830,"Beatties Ford Rd @ 3938",,35.288948,-80.858029,
02840,"Beatties Ford Rd & Slater Rd",,35.290864,-80.857600,
02850,"Beatties Ford Rd & Capps Hill Mine Rd",,35.289357,-80.858052,
02860,"Beatties Ford Rd & Slater Rd",,35.290855,-80.857500,
02870,"Beatties Ford Rd & Slater Springs Dr",,35.292087,-80.857092,
02880,"Beatties Ford Rd & Slater Springs Dr",,35.292152,-80.857160,
02890,"Beatties Ford Rd & Olde English Dr",,35.294609,-80.856283,
02900,"Beatties Ford Rd & Slater Ridge Dr",,35.294394,-80.856421,
02910,"Beatties Ford Rd @ 4530",,35.296916,-80.855952,
02940,"Beatties Ford Rd & Sunset Rd",,35.303645,-80.857282,
03010,"Belmont Ave & Seigle Ave",,35.228210,-80.821634,
03030,"Belmont Ave & Allen St",,35.227010,-80.820080,
03038,"Statesville Ave & Oliver St",,35.239870,-80.836543,
03130,"Berryhill Rd & Tuckaseegee Rd",,35.235981,-80.874927,
03140,"Berryhill Rd & Freedom Dr",,35.233935,-80.876033,
03150,"Berryhill Rd & Tuckaseegee Rd",,35.236248,-80.874898,
03160,"Berryhill Rd & Freedom Dr",,35.234044,-80.876096,
03180,"Billingsley Rd & Randolph Rd",,35.190485,-80.808893,
03190,"Billingsley Rd @ 431",,35.190433,-80.805735,
03200,"Billingsley Rd & Cascade Cir",,35.190676,-80.803853,
03390,"Braden Dr @ 3627",,35.287622,-80.867722,
03410,"Braden Dr & Dedmon Dr",,35.288906,-80.867889,
03590,"Bradford Dr & Key St",,35.256661,-80.897289,
03610,"Bradford Dr & Hoover St",,35.255079,-80.897561,
03670,"Brandon Forest Dr & Stradbrook Dr",,35.116294,-80.858982,
03705,"Briar Creek Rd & Creighton Dr",,35.211396,-80.792023,
03710,"Briar Creek Rd & Creighton Dr",,35.211789,-80.791713,
04220,"Canterwood Dr & Monteith Dr",,35.275243,-80.773600,
04350,"Capps Hill Mine Rd & Milan Rd",,35.291820,-80.870671,
04360,"Capps Hill Mine Rd & Firestone Dr",,35.291024,-80.869523,
04400,"Capps Hill Mine Rd & Braden Dr",,35.289415,-80.866815,
04408,"Capps Hill Mine Rd & Gold Nugget Ct",,35.289289,-80.865126,
04409,"Capps Hill Mine Rd & Gold Nugget Ct",,35.289374,-80.865181,
04410,"Capps Hill Mine Rd & Silver Ore Ln",,35.288928,-80.861973,
04420,"Capps Hill Mine Rd & Silver Ore Ln",,35.288955,-80.862216,
04440,"Capps Hill Mine Rd & Beatties Ford Rd",,35.288059,-80.859021,
04450,"Capps Hill Mine Rd & Beatties Ford Rd",,35.287984,-80.859609,
04480,"Carlyle Dr & Cartwright Pl",,35.232106,-80.898188,
04490,"Carlyle Dr & Wilson Ave",,35.231452,-80.899234,
04500,"Carlyle Dr & Bromwich Rd",,35.231353,-80.901844,
04510,"Carlyle Dr & Paisley Pl",,35.231146,-80.904362,
04520,"Carmel Rd & Carmel Park Ln",,35.147270,-80.801745,
04530,"Carmel Rd & Wandering Way Dr",,35.144708,-80.801404,
04540,"Carmel Rd & Crooked Oak Ln",,35.141426,-80.801612,
04550,"Carmel Rd & Sharon View Rd",,35.139034,-80.802824,
04560,"Carmel Rd & Thornridge Rd",,35.135303,-80.806037,
04570,"Carmel Rd & Camilla Dr",,35.133201,-80.807718,
04932,"Catawba Ave & Washam St",,35.483168,-80.864884,
04933,"Catawba Ave & Washam St",,35.483147,-80.864419,
04935,"Catawba Ave & Ferry St",,35.484074,-80.869839,
04940,"Catawba Ave & Ferry St",,35.484076,-80.869016,
04980,"Central Ave & 7th St",,35.220424,-80.828232,
04990,"Central Ave & Piedmont St",,35.221227,-80.824542,
05000,"Central Ave & Piedmont St",,35.221363,-80.824277,
05010,"Central Ave & Louise Ave",,35.221600,-80.823147,
05030,"Central Ave & Louise Ave",,35.221598,-80.822732,
05050,"Central Ave & Oakland Ave",,35.221554,-80.819975,
05060,"Central Ave & Heath Ct",,35.221789,-80.820556,
05070,"Central Ave & Hawthorne Ln",,35.221303,-80.818020,
05100,"Central Ave & Lamar Ave",,35.221060,-80.817382,
05120,"Central Ave & Clement Ave",,35.220551,-80.815041,
05130,"Central Ave & Clement Ave",,35.220678,-80.815002,
05140,"Central Ave & Pecan Ave",,35.220441,-80.813185,
05170,"Central Ave & Thomas Ave",,35.220240,-80.812446,
05180,"Central Ave & Thomas Ave",,35.220360,-80.811425,
05190,"Central Ave & Nandina St",,35.220151,-80.809574,
05200,"Central Ave & Nandina St",,35.220226,-80.808810,
05240,"Central Ave & Tippah Park Ct",,35.219667,-80.802482,
05250,"Central Ave & Iris Dr",,35.219598,-80.802655,
05270,"Central Ave & Lyon Ct",,35.219356,-80.800067,
05280,"Central Ave & Club Rd",,35.219407,-80.799650,
05310,"Central Ave & St George St",,35.218373,-80.795582,
05320,"Central Ave & Masonic Dr",,35.218653,-80.796008,
05330,"Central Ave & Eastcrest Dr",,35.217863,-80.794234,
05340,"Central Ave & Briar Creek Rd",,35.216363,-80.788066,
05350,"Central Ave & Wembley Dr",,35.217170,-80.792206,
05360,"Central Ave & Eastcrest Dr",,35.217282,-80.792283,
05370,"Central Ave & Briar Creek Rd",,35.216711,-80.789250,
05400,"Central Ave & Merry Oaks Rd",,35.216104,-80.785884,
05410,"Central Ave & Carolyn Dr",,35.215830,-80.784187,
05420,"Central Ave & Longfellow St",,35.215874,-80.782842,
05430,"Central Ave & Medford Dr",,35.215434,-80.779678,
05440,"Central Ave & Temple Ln",,35.215274,-80.777337,
05450,"Central Ave & Temple Ln",,35.215446,-80.777401,
05465,"Central Ave & Medallion Dr",,35.214989,-80.774615,
05470,"Central Ave & Kilborne Dr",,35.214282,-80.771901,
05480,"Central Ave & Sheridan Dr",,35.214632,-80.773864,
05500,"Central Ave & Norland Rd",,35.214049,-80.771654,
05510,"Central Ave & Progress Ln",,35.213542,-80.768372,
05520,"Central Ave & Progress Ln",,35.213364,-80.768311,
05540,"Central Ave & Rosehaven Dr",,35.212452,-80.763620,
05550,"Central Ave & Rosehaven Dr",,35.212341,-80.763839,
05560,"Central Ave @ 4908",,35.211522,-80.760617,
05570,"Central Ave & Winterfield Pl",,35.210720,-80.758948,
05580,"Central Ave & Winterfield Pl",,35.211078,-80.759224,
05590,"Central Ave & Sharon Amity Rd",,35.209599,-80.756430,
05630,"Central Ave @ Eastland Mall",,35.206955,-80.752690,
05650,"Centre St & Tennessee Ave",,35.261855,-80.872391,
05690,"Church St & 1st St",,35.225307,-80.848352,
05710,"Church St & 3rd St",,35.226847,-80.846066,
05730,"Cinderella Rd & Candystick Ln",,35.264696,-80.791651,
05750,"Cinderella Rd & Munsee St",,35.264510,-80.789921,
05780,"Clanton Rd & Dewitt Ln",,35.195079,-80.875263,
05790,"Clanton Rd & Tryon St",,35.196174,-80.878237,
05800,"Clanton Rd & St Vardell Ln",,35.196953,-80.880442,
05810,"Clanton Rd & St Vardell Ln",,35.197149,-80.880597,
05820,"Clanton Rd & Barringer Dr",,35.198938,-80.885516,
05850,"Clanton & Barringer",,35.199591,-80.887567,
05860,"Clanton Rd & Archer Ave",,35.200592,-80.890148,
05870,"Clanton Rd & Manchester Dr",,35.200278,-80.889458,
05900,"Clanton Rd & Fieldcrest Rd",,35.202604,-80.892927,
05910,"Clanton Rd & Fieldcrest Rd",,35.202865,-80.892773,
05940,"Clanton Rd & Sargeant Dr",,35.204544,-80.893484,
05950,"Clanton Rd & Sargeant Dr",,35.204113,-80.893096,
05970,"Clanton Rd & Caronia St",,35.207569,-80.893531,
05980,"Clanton Rd & Caronia St",,35.207869,-80.893635,
05990,"Clanton Rd & Farmer St",,35.209859,-80.893484,
06000,"Clanton Rd & Farmer St",,35.210064,-80.893355,
06005,"Clanton Rd & Pelton St",,35.195288,-80.875385,
06010,"Clanton Rd & Tryon St",,35.196356,-80.878452,
06280,"Colwick Rd & Greenwich Rd",,35.177506,-80.798312,
06290,"Colwick Rd & Sharon Amity Rd",,35.176573,-80.797355,
06310,"Commonwealth Ave & Green Oaks Ln",,35.211694,-80.798428,
06325,"The Plaza & McClintock Rd",,35.219109,-80.810740,
06326,"The Plaza & McClintock Rd",,35.219330,-80.810911,
06360,"Commonwealth Ave & Westover St",,35.216781,-80.808175,
06365,"Commonwealth Ave & Westover St",,35.216766,-80.808268,
06370,"Commonwealth Ave & Bascom St",,35.216063,-80.806940,
06380,"Commonwealth Ave & Hanover St",,35.215363,-80.805458,
06390,"Commonwealth Ave & Hanover St",,35.214794,-80.804527,
06400,"Commonwealth Ave & Lorna St",,35.214240,-80.803343,
06410,"Commonwealth Ave & Lorna St",,35.214220,-80.803426,
06420,"Commonwealth Ave & Morningside Dr",,35.212536,-80.800027,
06430,"Commonwealth Ave & Morningside Dr",,35.212659,-80.800472,
06440,"Commonwealth Ave & Rockway Dr",,35.211591,-80.798382,
06450,"Commonwealth Ave & Waterman Ave",,35.209008,-80.793507,
06460,"Commonwealth Ave & Pinecrest Ave",,35.208319,-80.791252,
06470,"Commonwealth Ave & Pinecrest Ave",,35.208277,-80.791298,
06530,"Cove Creek Dr & Barrington Dr",,35.257464,-80.751958,
06560,"Cove Creek Dr & Burleson Dr",,35.259326,-80.748436,
06561,"Cove Creek Dr & Burleson Dr",,35.259146,-80.748375,
06710,"Alleghany St & Crisman St",,35.238939,-80.887529,
06770,"Crownpoint Executive Dr & Independence Blvd",,35.143360,-80.721958,
06780,"Crownpoint Executive Dr @ 2201",,35.142492,-80.726907,
06790,"Crownpoint Executive Dr & Sardis Rd North",,35.144307,-80.728595,
06860,"Dalecrest Dr & Monmouth Dr",,35.279417,-80.814948,
06870,"Dalecrest Dr & Kenmont Dr",,35.279714,-80.815919,
06890,"Dalecrest Dr & Wynbrook Way",,35.280741,-80.818377,
06910,"Dalecrest Dr & Valeview Ln",,35.281361,-80.819864,
06920,"Dalecrest Dr & Valeview Ln",,35.281648,-80.820250,
06930,"Dalton Ave & Tryon St",,35.239639,-80.828220,
06950,"Dalton Ave & Tryon St",,35.239566,-80.828671,
06970,"Dalton Ave @ 300",,35.239617,-80.831279,
06980,"Dalton Ave @ 305",,35.239521,-80.831286,
06990,"Dalton Ave & Graham St",,35.239592,-80.834396,
07000,"Dalton Ave & Graham St",,35.239473,-80.834474,
07080,"Davidson St & Brevard St",,35.245316,-80.808806,
07320,"Dunn Ave & Heflin St",,35.203010,-80.805708,
07380,"4th St & Davidson St",,35.222016,-80.839027,
07480,"4th St & Kings Dr",,35.215738,-80.831425,
07500,"4th St & Torrence St",,35.213273,-80.827951,
07520,"4th St & Hawthorne Ln",,35.211622,-80.825667,
07540,"4th St & Hawthorne Ln",,35.211657,-80.825885,
07565,"Randolph Rd & Caswell Rd",,35.210395,-80.824276,
07570,"WT Harris Blvd & Bonlyn Dr",,35.199167,-80.726127,
07590,"Alleghany St & Ashley Rd",,35.238316,-80.895958,
07640,"WT Harris Blvd & Idlewild Rd North",,35.195205,-80.725839,
07650,"John St & Ames Rd",,35.117150,-80.724170,
07800,"Morehead St & Kenilworth Ave",,35.208874,-80.839973,
07810,"Morehead St & Kenilworth Ave",,35.208123,-80.839467,
07820,"Morehead St & Harding Pl",,35.206308,-80.837762,
07821,"Morehead St & Harding Pl",,35.206094,-80.837315,
07861,"Brevard St & 9th St",,35.228473,-80.834561,
07890,"7th St @ Carole Hoffner Center",,35.224791,-80.834331,
07900,"7th St & Alexander St",,35.223241,-80.832308,
07910,"7th St & McDowell St",,35.222983,-80.832226,
07930,"7th St & Hawthorne Ln",,35.215565,-80.821681,
07940,"7th St & Charlottetowne Ave",,35.219218,-80.827056,
07960,"7th St & Beaumont Ave",,35.217136,-80.823938,
07970,"7th St & Armory Dr",,35.216935,-80.823733,
07980,"7th St & Hawthorne Ln",,35.215499,-80.821829,
08010,"7th St & Clement Ave",,35.213439,-80.819399,
08020,"7th St & Caswell Rd",,35.212732,-80.818380,
08030,"7th St & Clarice Ave",,35.211202,-80.816519,
08040,"7th St & Clarice Ave",,35.211214,-80.816321,
08060,"7th St & Laurel Ave",,35.210161,-80.814966,
08070,"7th St & Laurel Ave",,35.210252,-80.814943,
08080,"7th St & Bascom St",,35.209018,-80.813232,
08090,"7th St & Cameron Ave",,35.209065,-80.813491,
08100,"7th St & Dotger Ave",,35.207929,-80.812425,
08110,"7th St & Dotger Ave",,35.207961,-80.812204,
08120,"7th St & 5th St",,35.206462,-80.811116,
08130,"7th St & Firefighter Pl",,35.206278,-80.810718,
08200,"Stonewall St & McDowell St",,35.215895,-80.839974,
08210,"Stonewall St & McDowell St",,35.216192,-80.839971,
08220,"3rd St & Brevard St",,35.223492,-80.842991,
08230,"3rd St & Davidson St",,35.221474,-80.840529,
08240,"3rd St @ Marshall Park",,35.220040,-80.838876,
08250,"3rd St & McDowell St",,35.218933,-80.837783,
08260,"3rd St & Kings Dr",,35.214431,-80.831634,
08280,"36th St & Alexander St",,35.246585,-80.803370,
08300,"36th St & McDowell St",,35.245333,-80.801841,
08320,"36th St & Charles Ave",,35.244290,-80.800615,
08390,"36th St & Holt St",,35.242203,-80.798134,
08420,"Trade St & Tryon St",,35.226875,-80.842620,
08430,"Trade St & College St",,35.226749,-80.842601,
08520,"Trade St & Alexander St",,35.222403,-80.837294,
08530,"Trade St & Alexander St",,35.222103,-80.837214,
08620,"East Blvd & Lyndhurst Ave",,35.209205,-80.854419,
08660,"East Blvd & Springdale Ave",,35.207729,-80.852215,
08670,"East Blvd & Lennox Ave",,35.206665,-80.851087,
08680,"East Blvd & Lennox Ave",,35.206378,-80.850410,
08720,"East Blvd & Scott Ave",,35.201094,-80.843376,
08780,"East Blvd & Garden Ter",,35.199103,-80.840611,
08820,"East Blvd & Kings Dr",,35.196174,-80.838227,
08900,"Eastway Dr @ CMC Northpark",,35.256991,-80.778174,
08920,"Eastway & Howie Circle",,35.251795,-80.780603,
08940,"Eastway Dr @ CMC Northpark",,35.256957,-80.777982,
08950,"Eastway Dr & Howie Cir",,35.251605,-80.780438,
08970,"Eastway Dr & Weldon Ave",,35.247110,-80.781298,
08980,"Eastway Dr & Commercial Ave",,35.245649,-80.780874,
08990,"Eastway Dr & Citiside Dr",,35.246737,-80.781082,
09000,"Eastway Dr & Finchley Dr",,35.243731,-80.780243,
09010,"Eastway Dr & Sugar Creek Rd",,35.244119,-80.780600,
09030,"Eastway Dr & Audrey St",,35.239162,-80.777580,
09040,"Eastway Dr & Audrey St",,35.239412,-80.777626,
09050,"Eastway Dr & Peace St",,35.240162,-80.778326,
09060,"Eastway Dr & Shamrock Dr",,35.235838,-80.775089,
09070,"Eastway Dr & Shamrock Dr",,35.235877,-80.775251,
09080,"Eastway Dr & Dunlavin Way",,35.232939,-80.774480,
09090,"Eastway Dr @ Metropolitan Community Church",,35.231043,-80.774483,
09100,"Eastway Dr @ 1908",,35.230624,-80.774594,
09110,"Eastway Dr & Kilborne Dr",,35.228920,-80.774775,
09120,"Eastway Dr & Kilborne Dr",,35.228734,-80.775075,
09140,"Eastway Dr & Sandhurst Dr",,35.226774,-80.776252,
09150,"Eastway Dr & Bently Pl",,35.225166,-80.777382,
09190,"Eastway Dr & Arnold Dr",,35.222659,-80.779116,
09200,"Eastway Dr & Bently Pl",,35.225130,-80.777532,
09220,"Eastway Dr & Burgin St",,35.219948,-80.780537,
09230,"Eastway Dr & Burgin St",,35.218365,-80.780730,
09240,"Eastway Dr & Burgin St",,35.218108,-80.780614,
09250,"Eastway Dr & Central Ave",,35.216872,-80.780590,
09270,"Eastway Dr & Sandhurst Dr",,35.227153,-80.776102,
09290,"Eastway Dr & Arnold Dr",,35.223496,-80.778675,
09310,"Eastway Dr & Arnold Dr",,35.221844,-80.779808,
09340,"Eastwood Dr & Shamrock Dr",,35.235402,-80.787305,
09350,"Eastwood Dr & Maywood Dr",,35.237030,-80.787984,
09360,"Eastwood Dr & Maywood Dr",,35.237053,-80.787945,
09380,"Eastwood Dr & Academy St",,35.239735,-80.788317,
09390,"Eastwood Dr & Academy St",,35.240520,-80.788376,
09420,"Echo Glen Rd & Bilmark Ave",,35.273650,-80.783786,
09640,"Edgewood Rd & Susan St",,35.248501,-80.899404,
09660,"Edgewood Rd & Major St",,35.249012,-80.899298,
09680,"Elgywood Ln & Blackhawk Rd",,35.273202,-80.772171,
09695,"Elgywood Ln & Canterwood Dr",,35.274811,-80.772689,
09840,"Elizabeth Ave & Hawthorne Ln",,35.213204,-80.826070,
09960,"Ellington St & Wheatley Ave",,35.193120,-80.802116,
09970,"Ellington St & Billingsley Rd",,35.191357,-80.801771,
09980,"Ellington St & Wheatley Ave",,35.192189,-80.802028,
09990,"Ellington St & Billingsley Rd",,35.191315,-80.801848,
10050,"English Dr & Sutton Dr",,35.265235,-80.862856,
10060,"English Dr & Abelwood Rd",,35.268656,-80.862301,
10110,"Erie St & LaSalle St",,35.260763,-80.845119,
10120,"Erie St & Catherine Simmons Ave",,35.262621,-80.844720,
10130,"Erie St & Catherine Simmons Ave",,35.262291,-80.844899,
10300,"Exchange St & Tarheel Rd",,35.267245,-80.905250,
10400,"Fairview Rd & Park Rd",,35.152618,-80.847785,
10410,"Fairview Rd & Wintercrest Ln",,35.151925,-80.843479,
10420,"Fairview Rd & Wintercrest Ln",,35.151739,-80.842007,
10470,"Fairview Rd & Park South Dr",,35.151344,-80.841017,
10490,"Fairview Rd & Barclay Downs Dr",,35.151065,-80.837562,
10491,"Fairview Rd & Barclay Downs Dr",,35.150904,-80.837484,
10550,"Fairview Rd & Oglukian Rd",,35.151455,-80.797896,
10850,"Fincher Blvd & Dalecrest Dr",,35.282671,-80.820936,
10860,"Fincher Blvd & Cypress Pond Dr",,35.284089,-80.820207,
10870,"Fincher Blvd & Cypress Pond Dr",,35.284524,-80.820159,
10880,"Fincher Blvd @ 3500",,35.286378,-80.820443,
10890,"Fincher Blvd @ 3501",,35.286325,-80.820475,
10900,"Fincher Blvd & Nevin Rd",,35.288278,-80.820700,
10910,"Fincher Blvd & Nevin Rd",,35.288363,-80.820762,
10920,"Lightspun Ln & Firespun Dr",,35.288988,-80.872737,
10960,"Firestone Dr & Dedmon Dr",,35.290192,-80.870214,
11015,"Huntersville Gateway Park & Ride",,35.413539,-80.857071,
11030,"Freedom Dr & Camp Greene St",,35.235437,-80.879696,
11040,"Freedom Dr & Camp Greene St",,35.235269,-80.879866,
11050,"Freedom Dr @ 2640",,35.238185,-80.883387,
11060,"Freedom Dr & Pacific St",,35.238083,-80.883582,
11070,"Freedom Dr & Ashley Rd",,35.245968,-80.894116,
11080,"Freedom Dr & Ashley Rd",,35.245901,-80.893501,
11095,"Freedom Dr & Bradford Dr",,35.249942,-80.898165,
11096,"Freedom Dr & Edgewood Rd",,35.249852,-80.898421,
11120,"Freedom Dr & Ranch Rd",,35.257183,-80.910086,
11121,"Freedom Dr & Ranch Rd",,35.257246,-80.910543,
11130,"Freedom Dr & Allenbrook Dr",,35.259095,-80.914213,
11131,"Freedom Dr & Allenbrook Dr",,35.259108,-80.914534,
11151,"Freedom Dr & Toddville Rd",,35.263094,-80.920642,
11230,"Georgetown Dr & Heatherbrooke Ave",,35.273463,-80.774831,
11250,"Georgetown Dr & Spring Garden Ln",,35.272988,-80.776885,
11330,"Graham St & 5th St",,35.231886,-80.845266,
11335,"Graham St & 7th St",,35.233115,-80.843612,
11340,"Graham St & 8th St",,35.233864,-80.842561,
11350,"Graham St & 10th St",,35.235108,-80.840867,
11390,"Green Oaks Ln & Commonwealth Ave",,35.212336,-80.797220,
11410,"Green Oaks Ln & Oak Valley Ln",,35.213059,-80.795759,
11420,"Green Oaks Ln & Oak Valley Ln",,35.213133,-80.795945,
11430,"Green Oaks Ln & Eastcrest Dr",,35.212761,-80.793037,
11440,"Green Oaks Ln & Briar Creek Rd",,35.212669,-80.793105,
11460,"Remount Rd & Wilkinson Blvd",,35.224663,-80.883313,
11461,"Remount Rd & Wilkinson Blvd",,35.225022,-80.883217,
11465,"Remount Rd & West Blvd",,35.216869,-80.883671,
11466,"Remount Rd & West Blvd",,35.216842,-80.883874,
11490,"Greenland Ave & Ashley Rd",,35.226428,-80.890127,
11500,"Greenwich Rd & Randolph Rd",,35.178490,-80.800315,
11540,"Griffith St & Watson St",,35.502557,-80.849951,
11541,"Griffith St & Watson St",,35.502661,-80.850202,
11600,"Hamlin Park Dr & Brandon Forest Dr",,35.115574,-80.858066,
11620,"WT Harris Blvd & Tantilla Cir",,35.230622,-80.728990,
11621,"WT Harris Blvd & Robinson Church Rd",,35.230418,-80.728415,
11630,"WT Harris Blvd & Williams Rd",,35.233792,-80.732602,
11631,"WT Harris Blvd & Grove Park Blvd",,35.233264,-80.731619,
11650,"WT Harris Blvd & Robinson Church Rd",,35.231471,-80.729943,
11660,"WT Harris Blvd @ 6670",,35.229460,-80.727790,
11670,"WT Harris Blvd & Kimmerly Glen Ln",,35.225955,-80.726135,
11671,"WT Harris Blvd & Kimmerly Glen Ln",,35.226017,-80.726044,
11680,"WT Harris Blvd & Hickory Grove Rd",,35.223978,-80.725433,
11690,"WT Harris Blvd @ 5820",,35.235395,-80.734357,
11691,"WT Harris Blvd & Rosecroft Dr",,35.235162,-80.733865,
11710,"Harrisburg Rd & Pence Rd",,35.213725,-80.687087,
11730,"Hateras Ave & Kennesaw Dr",,35.259915,-80.846258,
11740,"Hateras Ave & Erie St",,35.259689,-80.845468,
11860,"Hebron St & Nations Ford Rd",,35.129440,-80.894159,
11880,"Hickory Grove Rd & Sharon Amity Rd",,35.224248,-80.748380,
11890,"Hickory Grove Rd & Shamrock Dr",,35.223963,-80.745427,
11895,"Hickory Grove Rd & Shamrock Dr",,35.223804,-80.745461,
11900,"Hickory Grove Rd & Valleyview Dr",,35.223938,-80.742492,
11905,"Hickory Grove Rd & Valleyview Dr",,35.223780,-80.741907,
11910,"Hickory Grove Rd & Craigwood Dr",,35.223445,-80.738316,
11915,"Hickory Grove Rd & Craigwood Dr",,35.223294,-80.738239,
11920,"Hickory Grove Rd & Gaynelle Dr",,35.223102,-80.735217,
11930,"Hickory Grove Rd & Martha's Ridge Dr",,35.222953,-80.732552,
11935,"Hickory Grove Rd & Martha's Ridge Dr",,35.222809,-80.732570,
11940,"Hickory Grove Rd & WT Harris Blvd",,35.222708,-80.726415,
11950,"Hickory Grove Rd & Lawrence Orr Rd",,35.222757,-80.728207,
11955,"Hickory Grove Rd & WT Harris Blvd",,35.222525,-80.726745,
11990,"Mint Hill Festival Shopping Ctr @ Hwy 51",,35.172153,-80.657417,
12000,"Hoskins Rd & Rozzelles Ferry Rd",,35.266252,-80.883014,
12010,"Hoskins Rd & Rozzelles Ferry Rd",,35.265728,-80.883672,
12025,"Hoskins Rd & Brookshire Blvd",,35.266792,-80.881200,
12030,"Hoskins Rd & Brookshire Blvd",,35.266807,-80.881455,
12050,"Hoskins Rd & Hoskins Avenue Dr",,35.262954,-80.888529,
12080,"Hoskins Rd & Chesapeake Dr",,35.272833,-80.874400,
12100,"Hoskins Rd & Chesapeake Dr",,35.274714,-80.873451,
12105,"Hoskins Rd & Chesapeake Dr",,35.274815,-80.873293,
12120,"Hoskins Rd & Pompano Rd",,35.276466,-80.871035,
12125,"Hoskins Rd & Northpointe Industrial Bv",,35.276251,-80.869276,
12130,"Hoskins Rd & Northpointe Industrial Blvd",,35.276227,-80.868205,
12150,"Hoskins Rd & Gossett Ave",,35.265025,-80.885036,
12170,"Hoskins Rd @ 314",,35.263727,-80.887228,
12190,"Hoskins Rd @ 229",,35.263338,-80.887662,
12210,"Hoskins Rd & Morgan St",,35.262420,-80.889288,
12230,"Hovis Rd & Hoskins Rd",,35.262206,-80.891026,
12240,"Hovis Rd & Wildwood Ave",,35.262633,-80.893773,
12250,"Hovis Rd & Wildwood Ave",,35.262561,-80.893206,
12270,"Hovis Rd & Hoskins Rd",,35.262265,-80.891084,
12271,"Interurban Ave & Hovis Rd",,35.262858,-80.899320,
12275,"Interurban Ave & Willard St",,35.261756,-80.901692,
12320,"Hovis Rd & Bradford Dr",,35.262723,-80.896009,
12321,"Hovis Rd & Bradford Dr",,35.262592,-80.895333,
12330,"Hovis Rd & Tarheel Rd",,35.265871,-80.898419,
12340,"Hovis Rd & Tarheel Rd",,35.265727,-80.898342,
12350,"Hovis Rd & Gulf Dr",,35.268302,-80.898703,
12360,"Hovis Rd & Salem Church Rd",,35.277281,-80.895336,
12361,"Brookshire & Hovis",,35.278991,-80.894758,
12370,"Scott Futrell Dr & Billy Graham Pkwy",,35.237622,-80.921121,
12390,"Scott Futrell Dr @ 3709",,35.240321,-80.927988,
12400,"Scott Futrell Dr & Stafford Dr",,35.241248,-80.931601,
12420,"Scott Futrell Dr & Little Rock Rd",,35.237155,-80.939509,
12430,"Scott Futrell Dr @ 4101",,35.239605,-80.937551,
12490,"Montana Dr @ 532",,35.265916,-80.873849,
12580,"Idlewild Rd North & Lawyers Rd",,35.198759,-80.721548,
12630,"Idlewild Rd & Cedars East Ct",,35.183782,-80.751384,
12640,"Idlewild Rd & Dion Ave",,35.184796,-80.748943,
12650,"Idlewild Rd & Cedarwild Rd",,35.185979,-80.746779,
12660,"Idlewild Rd @ 7007",,35.186367,-80.745190,
12670,"Idlewild Rd & Boston Ave",,35.186002,-80.741748,
12680,"Idlewild Rd & Ivydale Dr",,35.185754,-80.739128,
12690,"Idlewild Rd & Idlebrook Dr",,35.187422,-80.735110,
12700,"Idlewild Rd & WT Harris Blvd",,35.186456,-80.731160,
12710,"Idlewild Rd & New Hampshire Dr",,35.182829,-80.726961,
12730,"Idlewild Rd North & WT Harris Blvd",,35.195392,-80.724319,
12750,"Idlewild Rd North @ Snow Ln",,35.197622,-80.722478,
12890,"Independence Blvd & Charleston Dr",,35.193407,-80.765326,
12910,"Independence Blvd & Farmingdale Dr",,35.191611,-80.763215,
12950,"Independence Blvd @ 5401",,35.185152,-80.757543,
12960,"Independence Blvd & Idlewild Rd",,35.182822,-80.755464,
12980,"Independence Blvd @ 6052 (KFC)",,35.178071,-80.751600,
12990,"Independence Blvd & Dion Ave",,35.176726,-80.749998,
13000,"Independence Blvd & Wallace Ln",,35.176292,-80.750005,
13010,"Independence Blvd @ 6248",,35.174694,-80.748538,
13020,"Independence Blvd @ 6335",,35.174358,-80.747842,
13030,"Independence Blvd & Wallace Rd",,35.169687,-80.744358,
13040,"Independence Blvd @ 6701",,35.169731,-80.744024,
13060,"Independence Blvd @ 7016",,35.165965,-80.742140,
13070,"Independence Blvd & Village Lake Dr",,35.162486,-80.739124,
13080,"Independence Blvd & Village Lake Dr",,35.161451,-80.738469,
13090,"Independence Blvd & Krefeld Dr",,35.158131,-80.734427,
13095,"Independence Blvd @ Woodway Point Apts",,35.156329,-80.732454,
13100,"Independence Blvd @ Cross Creek Apts",,35.154745,-80.730861,
13110,"Independence Blvd & Calibre Crossing Dr",,35.154105,-80.730643,
13115,"Independence Blvd & Sardis Rd North",,35.147816,-80.725046,
13150,"Interurban Ave & Westridge Dr",,35.260762,-80.903332,
13190,"Jennings St & Heil Pl",,35.255417,-80.850379,
13200,"Mulberry Ave & Heil Pl",,35.255228,-80.850512,
13210,"Jennings St & Russell Ave",,35.256430,-80.849695,
13230,"Jennings St & Russell Ave",,35.256171,-80.849951,
13240,"Jennings St & Newcastle St",,35.258520,-80.848014,
13250,"Jennings St & Newcastle St",,35.258711,-80.847921,
13280,"Johnston Rd & Park Rd",,35.095881,-80.859303,
13300,"Johnston Rd @ Oakbrook Apts",,35.094556,-80.858604,
13310,"Johnston Rd & McMullen Creek Pkwy",,35.092237,-80.856779,
13630,"Kennesaw Dr & Newland Rd",,35.263678,-80.845708,
13640,"Kennesaw Dr & Newland Rd",,35.263801,-80.845718,
13660,"Kentucky Ave & Honeywood Ave",,35.263052,-80.874768,
13770,"Kings Dr & Baxter St",,35.211645,-80.835084,
13810,"Kings Dr & Elizabeth Ave",,35.218493,-80.831604,
13870,"Statesville Ave & Holland Ave",,35.259121,-80.836492,
13910,"LaSalle St & Taylor Ave",,35.262856,-80.855923,
13930,"LaSalle St & Botany St",,35.262443,-80.860634,
14040,"Lawyers Rd & Maplewood Ln",,35.197969,-80.717246,
14050,"Lawyers Rd & Walnut Grove Ln",,35.197503,-80.716383,
14055,"Lawyers Rd & Rolling Oak Ln",,35.195739,-80.711317,
14060,"Lawyers Rd & Rolling Oak Ln",,35.195719,-80.711878,
14070,"Lawyers Rd & Harri Ann Dr",,35.194264,-80.707540,
14080,"Lawyers Rd & Harri Ann Dr",,35.194473,-80.707772,
14090,"Lawyers Rd & Bent Creek Cir",,35.191427,-80.703329,
14100,"Lawyers Rd & Glenmont Dr",,35.190322,-80.701592,
14110,"Lawyers Rd & Meadow Glen Dr",,35.188570,-80.693453,
14120,"Lawyers Rd & Wilson Grove Rd",,35.186332,-80.688086,
14130,"Lawyers Rd & Lebanon Rd",,35.185983,-80.687680,
14140,"Lawyers Rd & Danbrooke Park Dr",,35.180983,-80.682419,
14150,"Lawyers Rd & Danbrooke Park Dr",,35.180827,-80.682017,
14160,"Lawyers Rd & Golden Spike Dr",,35.178590,-80.674464,
14170,"Lawyers Rd & Lawyers Station Dr",,35.178626,-80.674414,
14180,"Lawyers Rd & Wooden Rail Ln",,35.177830,-80.669829,
14190,"Lawyers Rd & Wooden Rail Ln",,35.177875,-80.669740,
14205,"Lawyers Rd & Evans Rd",,35.176208,-80.660843,
14210,"Lawyers Rd & Hwy 51",,35.174038,-80.657612,
14220,"Lawyers Rd & Hwy 51",,35.174018,-80.657495,
14240,"Lawyers Rd & Old Lawyers Rd",,35.200524,-80.722520,
14260,"Leake St & Nobles Ave",,35.209469,-80.918237,
14270,"Leake St & West Blvd",,35.207875,-80.917499,
14300,"Lester St @ Amay James Center",,35.203256,-80.901620,
14335,"Little Rock Rd & Tuckaseegee Rd",,35.245245,-80.937138,
14340,"Little Rock Rd & I-85",,35.243212,-80.938012,
14415,"Longleaf Dr & South Blvd",,35.110753,-80.881732,
14420,"Longleaf Dr & South Blvd",,35.110733,-80.881738,
14440,"Longleaf Dr @ 1606",,35.111367,-80.878087,
14460,"Longleaf Dr & Lodgepole Pl",,35.111813,-80.875378,
14470,"Longleaf Dr & Spruce Pine Pl",,35.111594,-80.873063,
14480,"Longleaf Dr & Timberline Rd",,35.110819,-80.871486,
14500,"Longleaf Dr & Greyleaf Pl",,35.109445,-80.873591,
14520,"Longleaf Dr & Longleaf Dr",,35.111149,-80.876019,
14610,"Mallard Creek Church Rd & Tryon St",,35.320507,-80.732329,
14630,"Tryon St & Mallard Creek Church Rd",,35.320879,-80.734502,
14635,"Mallard Creek Church Rd & Tryon St",,35.320615,-80.732725,
14640,"Mallard Creek Church Rd & Alexander Glen Dr",,35.318516,-80.729179,
14650,"Mallard Creek Church Rd & Mary Alexander Rd",,35.316877,-80.726365,
14700,"Van Landingham Rd & John Kirk Dr",,35.307209,-80.724818,
14710,"John Kirk & University Terrace",,35.308606,-80.723792,
14870,"Marvin Rd & Wendover Rd",,35.190500,-80.798603,
14880,"Marvin Rd & Billingsley Rd",,35.191321,-80.798922,
15000,"Albemarle Rd & Central Av",,35.203271,-80.746084,
15150,"Milan Rd East & Otwell Ct",,35.286417,-80.870530,
15160,"Milan Rd East & Braden Dr",,35.286827,-80.868361,
15210,"Milan Rd & Big River Rd",,35.290953,-80.872876,
15310,"Milton Rd & Tipperary Pl",,35.241601,-80.749995,
15320,"Milton Rd & Oak Forest Dr",,35.240180,-80.748822,
15360,"Milton Rd & Briarhill Dr",,35.239390,-80.748179,
15370,"Milton Rd & Briarhill Dr",,35.239167,-80.747809,
15390,"Milton Rd & Meadowcliff Dr",,35.238041,-80.746978,
15400,"Milton Rd & Mendham Dr",,35.237716,-80.745708,
15440,"Milton Rd & Barrington Dr",,35.237549,-80.744368,
15480,"Milton Rd & Sharon Amity Rd",,35.237068,-80.740462,
15500,"Milton Rd & Sharon Amity Rd",,35.237113,-80.739100,
15510,"Milton Rd & Sharon Amity Rd",,35.236782,-80.737123,
15760,"Monroe Rd & Montrose St",,35.204338,-80.808515,
15770,"Monroe Rd & Dunn Ave",,35.204444,-80.808453,
15780,"Monroe Rd & Puhlman St",,35.204212,-80.805083,
15790,"Monroe Rd & Colonnade Dr",,35.204326,-80.804158,
15800,"Monroe Rd & Alcott St",,35.204077,-80.802455,
15810,"Monroe Rd & Briar Creek Rd",,35.204227,-80.802381,
15820,"Monroe Rd & Washburn Ave",,35.203145,-80.800429,
15830,"Monroe Rd & Fortune St",,35.202512,-80.799401,
15850,"Monroe Rd & Chipley Ave",,35.201036,-80.797731,
15855,"Monroe Rd & Chipley Ave",,35.201338,-80.797878,
15880,"Monroe Rd & Buford Ave",,35.199083,-80.794959,
15890,"Monroe Rd & Oak Grove Rd",,35.198722,-80.794616,
15900,"Monroe Rd & Wendover Rd",,35.197237,-80.791915,
15910,"Monroe Rd & Wendover Rd",,35.196083,-80.790403,
15930,"Monroe Rd & McAlway Rd",,35.194858,-80.788134,
15950,"Monroe Rd & Commonwealth Ave",,35.194387,-80.784631,
15960,"Monroe Rd & Commonwealth Ave",,35.194237,-80.784966,
15980,"Monroe Rd & Chippendale Rd",,35.193648,-80.782429,
16000,"Monroe Rd & Chippendale Rd",,35.193391,-80.781319,
16010,"Monroe Rd & Commodore St",,35.192706,-80.780152,
16030,"Monroe Rd & Ross Moore Ave",,35.191188,-80.776661,
16040,"Monroe Rd & Eaton Rd",,35.191101,-80.776016,
16090,"Monroe Rd & McMullen Way",,35.186952,-80.766882,
16091,"Monroe Rd & McMullen Way",,35.187076,-80.766634,
16100,"Monroe Rd & Ashmore Dr",,35.186284,-80.765147,
16120,"Monroe Rd & Ashmore Dr",,35.186123,-80.764326,
16130,"Monroe Rd & Idlewild Rd",,35.184788,-80.762487,
16140,"Monroe Rd & Long Ave",,35.184858,-80.762283,
16150,"Monroe Rd & Bainbridge Rd",,35.183126,-80.759698,
16160,"Monroe Rd & Bainbridge Rd",,35.183247,-80.760052,
16190,"Monroe Rd & Old Post Rd",,35.179246,-80.757150,
16200,"Monroe Rd & Old Post Rd",,35.178768,-80.756830,
16230,"Monroe Rd & Conference Dr",,35.177201,-80.756635,
16240,"Monroe Rd & Eaglewood Ave",,35.173964,-80.756863,
16250,"Monroe Rd & McLaughlin Dr",,35.173738,-80.757046,
16260,"Monroe Rd & Wallace Ln",,35.175389,-80.756497,
16290,"Monroe Rd & Pinafore Dr",,35.171717,-80.757036,
16300,"Monroe Rd & Burtonwood Cir",,35.171124,-80.756695,
16310,"Monroe Rd @ Mason Wallace Park",,35.168225,-80.755762,
16320,"Monroe Rd & Woodberry Rd",,35.167148,-80.755538,
16350,"Monroe Rd & Painter Pl",,35.165023,-80.754432,
16351,"Monroe Rd & Fox Run Dr",,35.165542,-80.754574,
16360,"Monroe Rd & Lumarka Dr",,35.162827,-80.752765,
16370,"Monroe Rd & Chasewood Dr",,35.162514,-80.752755,
16380,"Monroe Rd & Renard Ridge Rd",,35.160744,-80.751606,
16390,"Monroe Rd & Renard Ridge Rd",,35.160845,-80.751487,
16400,"Monroe Rd & Village Lake Dr",,35.156667,-80.749018,
16410,"Monroe Rd & Village Lake Dr",,35.158085,-80.749638,
16420,"Monroe Rd & McAlpine Station Dr",,35.155347,-80.748174,
16430,"Monroe Rd & Timber Springs Dr",,35.155246,-80.747828,
16450,"Monroe Rd @ 8516",,35.153482,-80.746962,
16480,"Monroe Rd @ 8539",,35.153298,-80.746600,
16490,"Monroe Rd & Covedale Dr",,35.147477,-80.745097,
16510,"Monroe Rd & Covedale Dr",,35.146911,-80.744336,
16520,"Monroe Rd @ Greylyn Park",,35.145210,-80.742650,
16521,"Monroe Rd & Orchard Lake Dr",,35.145086,-80.742830,
16540,"Monroe Rd & Orchard Lake Dr",,35.143616,-80.741428,
16550,"Monroe Rd & Delmar Office Dr",,35.142228,-80.740348,
16560,"Monroe Rd & Orchard Lake Dr",,35.142176,-80.740524,
16580,"Monroe Rd & Sardis Rd North",,35.140107,-80.739580,
16600,"Monroe Rd & Sardis Rd North",,35.139798,-80.739249,
16610,"Monroe Rd & Galleria Blvd",,35.134038,-80.736413,
16620,"Monroe Rd @ Family Dollar",,35.131499,-80.735004,
16630,"Monroe Rd @ 10701",,35.128252,-80.731694,
16640,"Monroe Rd & Lois St",,35.120890,-80.727989,
16650,"Monteith Dr & Canterwood Dr",,35.274325,-80.774176,
16690,"Morris Field Dr & Seymour",,35.220047,-80.915033,
16691,"Morris Field Dr & Seymour Dr",,35.220066,-80.914830,
16770,"Morrison Blvd @ 6337",,35.155745,-80.832449,
16790,"Morrison Blvd & Roxborough Rd",,35.154267,-80.829542,
16800,"Morrison Blvd & Sharon Rd",,35.153359,-80.827761,
16840,"Morrison Blvd @ Double Tree",,35.155595,-80.832543,
16890,"Morrison Blvd & Sharon Rd",,35.153803,-80.828969,
16990,"Mulberry Ave & Miles Ct",,35.252628,-80.850888,
17000,"Mulberry Ave & Miles Ct",,35.252649,-80.850976,
17020,"Mulberry Church Rd & Tuckaseegee Rd",,35.243871,-80.919761,
17050,"Mulberry Church Rd & Queen City Dr",,35.241002,-80.919438,
17141,"Caldwell & 7th St",,35.225972,-80.835754,
17180,"Graham St & Atando Ave",,35.260475,-80.820034,
17200,"Davidson St & 5th St",,35.224038,-80.836535,
17210,"Davidson St & 6th St",,35.224739,-80.835613,
17220,"Davidson St & 9th St",,35.226248,-80.833232,
17230,"Davidson St & 8th St",,35.225834,-80.834080,
17240,"Davidson St & 10th St",,35.228010,-80.831028,
17250,"Davidson St & 11th St",,35.227786,-80.831120,
17260,"Davidson St & 12th St",,35.228934,-80.829699,
17270,"Davidson St & 12th St",,35.228851,-80.829563,
17290,"Davidson St & Belmont Ave",,35.231192,-80.826326,
17300,"Davidson St & Belmont Ave",,35.231502,-80.826025,
17330,"Davidson St & 16th St",,35.232786,-80.824151,
17340,"Davidson St & 16th St",,35.232829,-80.824196,
17400,"Davidson St & 19th St",,35.234342,-80.821741,
17420,"Davidson St & 19th St",,35.234987,-80.821155,
17450,"Davidson St & 21st St",,35.235815,-80.819922,
17480,"Davidson St & 22nd St",,35.236885,-80.818579,
17490,"Davidson St & 25th St",,35.238958,-80.815936,
17500,"Davidson St & 25th St",,35.239500,-80.815325,
17520,"Davidson St & 26th St",,35.239992,-80.814602,
17540,"Davidson St & 28th St",,35.241946,-80.812241,
17550,"Davidson St & 28th St",,35.241788,-80.812284,
17580,"Davidson St & 32nd St",,35.244953,-80.809266,
17620,"Davidson St & 33rd St",,35.245885,-80.807772,
17630,"Davidson & 35th",,35.246779,-80.806201,
17640,"Davidson St & 36th St",,35.247439,-80.805093,
17660,"Davidson St & 36th St",,35.247500,-80.804870,
17670,"Graham St & 5th St",,35.231274,-80.845898,
17671,"5th & Graham",,35.231465,-80.846060,
17672,"Graham St & 6th St",,35.232019,-80.844913,
17675,"Graham St & 7th St",,35.233124,-80.843396,
17680,"Graham St & 9th St",,35.233997,-80.842234,
17690,"Graham St & Dalton Ave",,35.240089,-80.835658,
17700,"Graham St & Armour Dr",,35.242034,-80.833949,
17720,"Graham St & Sylvania Ave",,35.243836,-80.832676,
17730,"Graham St & Sylvania Ave",,35.243735,-80.832641,
17740,"Graham St & Keswick Ave",,35.244726,-80.831993,
17760,"Graham St & Wolfberry St",,35.245531,-80.831267,
17780,"Graham St & 24th St",,35.247508,-80.829761,
17790,"Graham St & Wolfberry St",,35.245722,-80.831222,
17800,"Graham St & Concordia Ave",,35.249778,-80.828140,
17810,"Graham St & 24th St",,35.247356,-80.829995,
17820,"Graham St & Concordia Ave",,35.249476,-80.828267,
17830,"Graham St & Franklin Av",,35.251321,-80.827063,
17840,"Graham St & Franklin Av",,35.251189,-80.826909,
17860,"Graham St & Ennis Ave",,35.258088,-80.821914,
17861,"Graham St & Ennis Ave",,35.258300,-80.821932,
17880,"Graham St & Atando Ave",,35.260570,-80.820077,
17900,"Graham St & Kennedy St",,35.262303,-80.818510,
17910,"Graham St & Johnson Rd",,35.264117,-80.817217,
17920,"Graham St & Toal St",,35.265446,-80.816574,
17930,"Graham St & Toal St",,35.265505,-80.816471,
17940,"Graham St & Ameron Dr",,35.267802,-80.815239,
17950,"Graham St & Starita Rd",,35.268838,-80.814679,
17960,"Graham St & Starita Rd",,35.269357,-80.814520,
17970,"Graham St & Craighead Rd",,35.270102,-80.813943,
17980,"Graham St & Amble Dr",,35.272261,-80.812342,
17990,"Graham St & Amble Dr",,35.272532,-80.812245,
18000,"Graham St & Cottonwood St",,35.274954,-80.810345,
18010,"Graham St & Reagan Dr",,35.274788,-80.810221,
18040,"Elizabeth Ave & Kings Dr",,35.218536,-80.832546,
18120,"Tryon St & 6th St",,35.228932,-80.840570,
18150,"Tryon St & 8th St",,35.230056,-80.838934,
18190,"Tryon St & Phifer Ave",,35.231255,-80.837260,
18300,"Tryon St & Wadsworth Pl",,35.235981,-80.831023,
18330,"Tryon St & Wadsworth Pl",,35.236041,-80.831181,
18370,"Tryon St & Dalton Ave",,35.237943,-80.828622,
18390,"Tryon St & Dalton Ave",,35.239103,-80.827267,
18400,"Tryon St & Dalton Ave",,35.239209,-80.826978,
18420,"Tryon St & Keswick Ave",,35.241011,-80.824683,
18430,"Tryon St & Keswick Ave",,35.241156,-80.824807,
18440,"Tryon St & 23rd St",,35.242015,-80.823752,
18450,"Tryon St & 24th St",,35.243173,-80.822170,
18460,"Tryon St & 23rd St",,35.242324,-80.823049,
18470,"Tryon St & 24th St",,35.243351,-80.822183,
18480,"Tryon St & 26th St",,35.245451,-80.819842,
18490,"Tryon St & 27th St",,35.245835,-80.819325,
18500,"Tryon St & 28th St",,35.247379,-80.817695,
18510,"Tryon St & 28th St",,35.246943,-80.818018,
18520,"Tryon St & 30th St",,35.249186,-80.815256,
18530,"Tryon St & 30th St",,35.249194,-80.815461,
18540,"Tryon St & 32nd St",,35.250590,-80.813154,
18550,"Tryon St & 32nd St",,35.250530,-80.813630,
18570,"Tryon St & Atando Ave",,35.251709,-80.810853,
18580,"Tryon St & 36th St",,35.252893,-80.807754,
18590,"Tryon St & 36th St",,35.253133,-80.807141,
18610,"Tryon St & Hilo Dr",,35.254311,-80.804050,
18620,"Tryon St & Hilo Dr",,35.254297,-80.803148,
18630,"Tryon St & Craighead Rd",,35.254764,-80.801520,
18640,"Tryon St & Craighead Rd",,35.255201,-80.799982,
18650,"Tryon St & Austin Dr",,35.267765,-80.768176,
18660,"Tryon St @ 4070",,35.256948,-80.797244,
18670,"Tryon St @ 4108",,35.257532,-80.796354,
18680,"Tryon St & Sugar Creek Rd",,35.257272,-80.796932,
18700,"Tryon St & Beechway Cir",,35.258382,-80.793258,
18720,"Tryon St & Wellingford St",,35.258496,-80.792026,
18730,"Tryon St & Mellow Dr",,35.258398,-80.788651,
18740,"Tryon St & Dorton St",,35.258181,-80.787725,
18750,"Tryon St & Bennett St",,35.258244,-80.785096,
18760,"Tryon St & Bennett St",,35.258036,-80.784335,
18770,"Tryon St & Bingham Dr",,35.258154,-80.782816,
18780,"Tryon St & Eastway Dr",,35.259390,-80.778022,
18790,"Tryon St & Lambeth Dr",,35.258091,-80.781351,
18800,"Tryon St & Eastway Dr",,35.258779,-80.778813,
18820,"Tryon St & Northchase Dr",,35.261942,-80.773789,
18840,"Tryon St & Old Concord Rd",,35.263282,-80.771942,
18860,"Tryon St & Orr Rd",,35.265911,-80.769044,
18890,"Tryon St  & Austin Dr",,35.266774,-80.769105,
18910,"Tryon St & Orchard Trace Ln",,35.281129,-80.765642,
18930,"Tryon St & Rocky River Rd",,35.288378,-80.758806,
18960,"Tryon St & University City Blvd",,35.292668,-80.755837,
19040,"Tryon St & JM Keynes Dr",,35.308300,-80.747484,
19060,"Tryon St & JM Keynes Dr",,35.307613,-80.748612,
19110,"Tryon St & Barton Creek Dr",,35.315413,-80.740488,
19120,"Tryon St @ 9528 (Hight Veterinary)",,35.316080,-80.739420,
19130,"N Tryon St @ Cookout",,35.317825,-80.738069,
19140,"Nations Ford Rd & Tryon St",,35.178080,-80.891129,
19160,"Nations Ford Rd & Marshall Air Dr",,35.171170,-80.890524,
19200,"Nations Ford Rd & Lone Pine Ln",,35.168775,-80.891840,
19210,"Nations Ford Rd & Tyvola Rd",,35.163497,-80.895399,
19230,"Nations Ford Rd & Tyvola Rd",,35.162638,-80.896058,
19240,"Nations Ford Rd & Sharview Cir",,35.161085,-80.896423,
19250,"Nations Ford Rd & Sharview Cir",,35.161257,-80.896310,
19260,"Nations Ford Rd & Glenrock Dr",,35.158614,-80.896844,
19270,"Nations Ford Rd & Echodale Dr",,35.156826,-80.897037,
19280,"Nations Ford Rd & Echodale Dr",,35.156897,-80.896925,
19290,"Nations Ford Rd @ EE Waddell High School",,35.154321,-80.897293,
19300,"Nations Ford Rd @ EE Waddell High School",,35.154316,-80.897430,
19310,"Nations Ford Rd & Regency Executive Park Dr",,35.152760,-80.897649,
19320,"Nations Ford Rd & Nations Dr",,35.150650,-80.897804,
19330,"Nations Ford Rd & Choyce Ave",,35.150177,-80.897485,
19340,"Nations Ford Rd & Red Roof Dr",,35.145503,-80.895683,
19350,"Nations Ford Rd & Farmhurst Dr",,35.145775,-80.895669,
19360,"Nations Ford Rd & Farmhurst Dr",,35.143176,-80.894598,
19370,"Nations Ford Rd & Forest Point Blvd",,35.143050,-80.894712,
19380,"Nations Ford Rd & Short Hills Dr",,35.141404,-80.894520,
19390,"Nations Ford Rd & Short Hills Dr",,35.141370,-80.894399,
19400,"Nations Ford Rd & Colony Acres Dr",,35.139207,-80.893713,
19410,"Nations Ford Rd & Deanna Ln",,35.140069,-80.893994,
19420,"Nations Ford Rd & Hilary Cir",,35.138598,-80.892996,
19430,"Nations Ford Rd & Huntsmoor Dr",,35.137687,-80.892376,
19440,"Nations Ford Rd & Huntsmoor Dr",,35.136905,-80.891920,
19530,"Cindy Ln & Belmar Place Rd",,35.286259,-80.828459,
19531,"Cindy Ln & Belmar Place Rd",,35.286131,-80.829287,
19535,"Cindy Ln & Statesville Rd",,35.284666,-80.833790,
19536,"Cindy Ln & Statesville Rd",,35.284452,-80.833737,
19560,"Nevin Rd & Spring Terrace Ln",,35.288203,-80.823145,
19570,"Nevin Rd & Spring Terrace Ln",,35.288329,-80.822638,
19622,"Erie St & LaSalle St",,35.260760,-80.845245,
19630,"Newland Rd & Irma St",,35.265207,-80.847599,
19640,"Newland Rd & Irma St",,35.265072,-80.847435,
19650,"Newland Rd & Holly St",,35.267252,-80.850105,
19660,"Newland Rd & Holly St",,35.267519,-80.850396,
19670,"Newland Rd & Gilbert St",,35.268137,-80.850775,
19740,"Nobles Ave & Leake St",,35.209532,-80.918458,
19800,"Nobles Ave @ 3100",,35.209456,-80.916103,
19810,"Nobles Ave & Leake St",,35.209789,-80.917809,
19835,"Nobles Ave & Holabird Ln",,35.209365,-80.914690,
19850,"Nobles Ave & Leake St",,35.209789,-80.917615,
19860,"Norris Ave & Catalina Ave",,35.251889,-80.819572,
19870,"Norris Ave & Catalina Ave",,35.251644,-80.819514,
19890,"Norris Ave & Isenhour St",,35.257541,-80.832482,
19900,"Norris Ave & Isenhour St",,35.257474,-80.832957,
19905,"Norris Ave & Statesville Ave",,35.257488,-80.834408,
19910,"Norris Ave & Statesville Ave",,35.257337,-80.835299,
19970,"Oaklawn Ave & Spring St",,35.245892,-80.837533,
19990,"Oaklawn Ave & Stroud Park Ct",,35.247005,-80.841160,
20010,"Oaklawn Ave & Burton St",,35.247689,-80.843196,
20030,"Oaklawn Ave & Andrill Ter",,35.248814,-80.847592,
20040,"Oaklawn Ave & Andrill Ter",,35.248566,-80.847513,
20050,"Oaklawn Ave & Blazer Dr",,35.250049,-80.849520,
20060,"Oaklawn Ave & Clifton St",,35.249912,-80.849500,
20070,"Oaklawn & Fairfield",,35.250570,-80.850765,
20080,"Oaklawn & Mulberry",,35.251170,-80.851575,
20281,"Morris Field Dr & CPCC Harris Campus Dr",,35.216492,-80.921332,
20282,"Morris Field Dr & Airport Center Pkwy",,35.216641,-80.921518,
20380,"Orange St & Sam Drenan Rd",,35.199140,-80.809578,
20400,"Orange St & Maxwell Ariel Ln",,35.200782,-80.808328,
20410,"Orange St & McVay St",,35.202217,-80.807158,
20430,"Aberdeen St & Whitehall Dr",,35.233638,-80.904929,
20480,"Park Rd & Worthington Ave",,35.204495,-80.851181,
20490,"Park Rd & Worthington Ave",,35.204693,-80.850854,
20520,"Park Rd & Ideal Way",,35.200925,-80.852272,
20530,"Park Rd & Ideal Way",,35.200888,-80.852177,
20540,"Park Rd & Charlotte Dr",,35.199340,-80.852078,
20550,"Park Rd & Charlotte Dr",,35.199593,-80.851985,
20560,"Park Rd & Ordermore Ave",,35.197685,-80.851709,
20570,"Park Rd & McDonald Ave",,35.197689,-80.851813,
20580,"Park Rd & Poindexter Dr",,35.191524,-80.853160,
20590,"Park Rd & Sunset Dr",,35.194007,-80.852060,
20600,"Park Rd & Salem Dr",,35.194241,-80.851802,
20630,"Park Rd & Poindexter Dr",,35.191467,-80.853095,
20640,"Park Rd & Marsh Rd",,35.187875,-80.853066,
20650,"Park Rd & Princeton Ave",,35.188662,-80.853014,
20660,"Park Rd & Marsh Rd",,35.186345,-80.852884,
20670,"Park Rd & Hampton Gardens Ln",,35.185415,-80.852760,
20680,"Park Rd & Park Slope Dr",,35.185226,-80.852906,
20690,"Park Rd @ 3420 (YWCA)",,35.183253,-80.852386,
20700,"Park Rd & Townes Rd",,35.183301,-80.852290,
20710,"Park Rd & Hillside Ave",,35.180714,-80.851434,
20720,"Park Rd & Hillside Ave",,35.179474,-80.851319,
20760,"Park Rd & Park Rd Shopping Center Dr",,35.175579,-80.850980,
20770,"Park Rd & Heather Ln",,35.174516,-80.851281,
20780,"Park Rd @ 4335",,35.172958,-80.851141,
20790,"Park Rd & Montford Dr",,35.171090,-80.851112,
20800,"Park Rd & Woodlawn Rd",,35.171328,-80.850947,
20820,"Park Rd & Mockingbird Ln",,35.168112,-80.850676,
20830,"Park Rd & Abbey Pl",,35.168706,-80.850616,
20840,"Park Rd & Mockingbird Ln",,35.167058,-80.850394,
20850,"Park Rd & Seneca Pl",,35.165861,-80.850508,
20860,"Park Rd & Seneca Pl",,35.164857,-80.850164,
20870,"Park Rd @ 4912",,35.163669,-80.849739,
20880,"Park Rd @ 4943",,35.163481,-80.849416,
20890,"Park Rd & Cortland Rd",,35.162094,-80.849161,
20900,"Park Rd @ Cielo Apts",,35.161804,-80.848933,
20910,"Park Rd & Selwyn Ave",,35.159198,-80.848600,
20920,"Park Rd & Scofield Rd",,35.155970,-80.848379,
20930,"Park Rd & Manning Dr",,35.157272,-80.848432,
20940,"Park Rd & Selwyn Ave",,35.159925,-80.848827,
20950,"Park Rd & Scofield Rd",,35.155805,-80.848191,
20970,"Park Rd & Tyvola Rd",,35.152150,-80.848751,
20980,"Park Rd & Closeburn Rd",,35.151169,-80.848715,
20990,"Park Rd @ Park Road Park",,35.147642,-80.849833,
21020,"Park Rd & Archdale Dr",,35.145830,-80.849755,
21060,"Park Rd & Old Reid Rd",,35.141765,-80.851062,
21080,"Park Rd & Northampton Dr",,35.139363,-80.852262,
21090,"Park Rd & Northampton Dr",,35.140018,-80.851899,
21100,"Park Rd & Park South Dr",,35.136995,-80.852937,
21110,"Park Rd & Park South Dr",,35.137109,-80.853027,
21120,"Park Rd & Huntington Farms Ln",,35.133831,-80.853568,
21135,"Park Rd & Barcan Ct",,35.132348,-80.853628,
21160,"Park Rd & Seth Thomas Rd",,35.129013,-80.854285,
21200,"Park Rd & Meeting St",,35.121394,-80.854680,
21210,"Park Rd & Meeting St",,35.121000,-80.854616,
21220,"Park Rd & Hamlin Park Dr",,35.115495,-80.856576,
21230,"Park Rd & Hamlin Park Dr",,35.115665,-80.856232,
21251,"Park Rd @ Southminister Retirement Dr",,35.110457,-80.857879,
21252,"Park Rd @ South Meck High School",,35.110616,-80.858084,
21260,"Park Rd & Arbor Pointe Dr",,35.107358,-80.858187,
21270,"Park Rd & Arbor Pointe Dr",,35.107848,-80.858148,
21280,"Park Rd & Birnen Dr",,35.103873,-80.857823,
21290,"Park Rd & Birnen Dr",,35.103825,-80.857571,
21300,"Park Rd & Park Crossing Dr",,35.099498,-80.859245,
21310,"Park Rd & Park Crossing Dr",,35.099411,-80.859022,
21320,"Park Rd & Plum Creek Ln",,35.096089,-80.860963,
21325,"Park Rd & Old Park Dr",,35.096157,-80.861165,
21330,"Park Rd & Park Cedar Dr",,35.095038,-80.865854,
21335,"Park Rd & Park Cedar Dr",,35.095089,-80.866099,
21340,"Park Rd & Willow Ridge Rd",,35.093520,-80.868180,
21345,"Park Rd & Willow Ridge Rd",,35.094359,-80.867819,
21350,"Park Rd @ Black Lion",,35.092485,-80.868663,
21355,"Park Rd @ CMC Pineville",,35.091191,-80.869658,
21360,"Park Rd & Hunter Ridge Dr",,35.088119,-80.870905,
21370,"Park Rd & Hunter Ridge Dr",,35.088228,-80.870712,
21380,"Park Rd & Osprey Dr",,35.086046,-80.869704,
21385,"Park Rd & Hunter Trail Ln",,35.085412,-80.868931,
21400,"Park Rd & Blue Heron Dr",,35.082517,-80.867972,
21403,"Park Rd & Blue Heron",,35.081787,-80.867758,
21405,"Park Rd & Tradewinds Ln",,35.079986,-80.867800,
21410,"Park Rd & Tradewinds Ln",,35.080232,-80.867846,
21420,"Park Rd & Camelback Cir",,35.078486,-80.868839,
21425,"Park Rd & Camelback Cir",,35.078412,-80.868794,
21426,"Park Rd @ Sam's Club",,35.076163,-80.874709,
21427,"Park Rd & I-485",,35.077211,-80.871267,
21428,"Park Rd & I-485",,35.077118,-80.871238,
21429,"Park Rd @ Sam's Club",,35.076068,-80.874667,
21511,"5th St & Cedar St",,35.234337,-80.849592,
21512,"5th St & Cedar St",,35.234119,-80.849641,
21513,"Salem Church Rd & Rozzelles Ferry Rd",,35.276316,-80.893927,
21560,"Parkwood Ave & Umstead St",,35.233120,-80.812550,
21570,"Parkwood Ave & Hawthorne Ln",,35.232960,-80.810902,
21580,"Parkwood Ave & Hawthorne Ln",,35.232769,-80.810479,
21590,"Parkwood Ave & Barry St",,35.232619,-80.809270,
21600,"Parkwood Ave & The Plaza",,35.232726,-80.808371,
21640,"Pegram St & Belmont Ave",,35.226857,-80.818911,
21650,"Pegram St & Belmont Ave",,35.226750,-80.818889,
21680,"Pegram St & 16th St",,35.227948,-80.817802,
21690,"Pegram St & 16th St",,35.228403,-80.817358,
21700,"Pegram St & 17th St",,35.229417,-80.816621,
21710,"Pegram St & 17th St",,35.229368,-80.816596,
21740,"Pegram St & Parkwood Ave",,35.232722,-80.814142,
21750,"Pegram St & 20th St",,35.232031,-80.814606,
21760,"Pegram St & 20th St",,35.232066,-80.814613,
21770,"Pegram St & Parkwood Ave",,35.233081,-80.813869,
21790,"Pence Rd & Holly Hill Rd",,35.222590,-80.704738,
21800,"Pence Rd & Viola Dr",,35.216970,-80.695341,
21805,"Pence Rd & Viola Dr",,35.216745,-80.695122,
21970,"Pressley Rd & Tryon St",,35.184460,-80.887491,
21990,"Pressley Rd & Charlotte Park Dr",,35.185646,-80.889336,
22000,"Pressley Rd & Charlotte Park Dr",,35.185881,-80.890110,
22030,"Pressley Rd & Stuart Andrew Blvd",,35.186600,-80.890928,
22040,"Pressley Rd @ 654",,35.187816,-80.891870,
22070,"Pressley Rd & Bishop Dr",,35.189339,-80.893064,
22080,"Pressley Rd & Bishop Dr",,35.189229,-80.893048,
22130,"Pressley Rd & Barringer Dr",,35.192816,-80.894949,
22150,"Pressley Rd & Rose Vine Pl",,35.194496,-80.894904,
22160,"Pressley Rd & Rose Vine Pl",,35.194481,-80.895009,
22190,"Providence Rd & Ardsley Rd",,35.202013,-80.825009,
22200,"Providence Rd & Altondale Ave",,35.200050,-80.825551,
22210,"Providence Rd & Ardsley Rd",,35.201734,-80.824943,
22220,"Providence Rd & Cottage Pl",,35.198806,-80.826076,
22230,"Providence Rd & Altondale Ave",,35.199607,-80.825612,
22240,"Providence Rd & Cottage Pl",,35.198609,-80.826018,
22250,"Providence Rd & Middleton Dr",,35.197752,-80.826370,
22260,"Providence Rd & Middleton Dr",,35.197916,-80.826444,
22270,"Providence Rd & Queens Rd",,35.195189,-80.826517,
22290,"Providence Rd & Queens Rd",,35.195290,-80.826703,
22300,"Providence Rd & Oxford Pl",,35.193573,-80.825396,
22310,"Providence Rd & Oxford Pl",,35.193333,-80.825113,
22320,"Providence Rd & Cherokee Rd",,35.192138,-80.824306,
22330,"Providence Rd & Portland Ave",,35.190280,-80.823287,
22340,"Providence Rd & Portland Ave",,35.189812,-80.822982,
22350,"Providence Rd & Beverly Dr",,35.187650,-80.822177,
22360,"Providence Rd & Beverly Dr",,35.187518,-80.822007,
22370,"Providence Rd & Scotland Ave",,35.184140,-80.820596,
22380,"Providence Rd & Hanson Dr",,35.184064,-80.820722,
22390,"Providence Rd & Vernon Dr",,35.182701,-80.819974,
22400,"Providence Rd & Pinewood Cir",,35.181901,-80.819779,
22410,"Providence Rd & Cassamia Pl",,35.180470,-80.819178,
22420,"Providence Rd & Harris Rd",,35.178914,-80.818514,
22430,"Providence Rd & Providence Dr",,35.179107,-80.818426,
22450,"Providence Rd & Wendover Rd",,35.176949,-80.816870,
22460,"Providence Rd & Vernon Dr",,35.175976,-80.815610,
22470,"Providence Rd & Andover Rd",,35.174831,-80.813700,
22480,"Providence Rd & Shoreham Dr",,35.174454,-80.813377,
22510,"Providence Rd & Sharon Amity Rd",,35.172107,-80.809684,
22520,"Providence Rd & Sharon Amity Rd",,35.172135,-80.809464,
22530,"Providence Rd & Brookridge Ln",,35.170141,-80.807058,
22540,"Providence Rd & Greentree Dr",,35.168535,-80.805029,
22550,"Providence Rd & Rutledge Ave",,35.167077,-80.804020,
22560,"Providence Rd & Westbury Rd",,35.168170,-80.804479,
22570,"Providence Rd & Cavendish Ct",,35.163231,-80.801713,
22580,"Providence Rd & Huntington Park Dr",,35.165035,-80.802797,
22590,"Providence Rd & Cloister Dr",,35.161336,-80.800586,
22600,"Providence Rd & Cavendish Ct",,35.162950,-80.801409,
22610,"Providence Rd & Strawberry Hill Dr",,35.157959,-80.798300,
22620,"Providence Rd & Meadowood Ln",,35.161409,-80.800478,
22630,"Providence Rd @ Camden Pinehurst Apts",,35.157091,-80.797351,
22640,"Providence Rd & Fairview Rd",,35.156222,-80.796471,
22650,"Providence Rd @ Camden Pinehurst Apts",,35.156942,-80.797059,
22660,"Providence Rd & Old Sardis Rd",,35.155391,-80.795593,
22670,"Providence Rd & Mammoth Oaks Dr",,35.152543,-80.793630,
22690,"Providence Rd & Provence Village Ln",,35.152048,-80.793646,
22710,"Providence Rd & Greylyn Dr",,35.149288,-80.791845,
22715,"Providence Rd & Shalom Park Dr",,35.146950,-80.790063,
22720,"Providence Rd & Creola Rd",,35.150117,-80.792318,
22730,"Providence Rd & Jefferson Dr",,35.148886,-80.791371,
22735,"Providence Rd & Shalom Park Dr",,35.147681,-80.790389,
22740,"Providence Rd & East Barden Rd",,35.145431,-80.788605,
22750,"Providence Rd & East Barden Rd",,35.145624,-80.788599,
22760,"Providence Rd & Pine Tree Dr",,35.143602,-80.786723,
22770,"Providence Rd & Old Farm Rd",,35.143089,-80.786453,
22780,"Providence Rd & Brockton Ln",,35.141862,-80.785583,
22800,"Providence Rd & Folger Dr",,35.141218,-80.785120,
22810,"Providence Rd & International Dr",,35.134762,-80.782520,
22820,"Providence Rd & Sardis Ln",,35.138321,-80.783859,
22840,"Providence Rd & International Dr",,35.135235,-80.782524,
22850,"Providence Rd @ Heatherwood Apts",,35.132561,-80.781606,
22860,"Providence Rd @ Heatherwood Apts",,35.132544,-80.781803,
22870,"Providence Rd & Summertree Ln",,35.126647,-80.781186,
22880,"Providence Rd & Summertree Ln",,35.126272,-80.780933,
22890,"Providence Rd & Outer Bridge Ln",,35.124156,-80.780703,
22900,"Providence Rd & Outer Bridge Ln",,35.123962,-80.780866,
22910,"Providence Rd & Hamilton Hill Rd",,35.122463,-80.780362,
22920,"Providence Rd & Lynbridge Dr",,35.122014,-80.780472,
22930,"Providence Rd & Alexander Rd",,35.115948,-80.779006,
22940,"Providence Rd & Rea Rd",,35.116336,-80.779348,
22950,"Providence Rd & Cedar Croft Dr",,35.114509,-80.778763,
22960,"Providence Rd & Cedar Croft Dr",,35.114215,-80.778914,
22970,"Providence Rd & Beverly Crest Blvd",,35.107844,-80.778604,
22980,"Providence Rd & Candlewyck Ln",,35.108634,-80.778682,
22990,"Providence Rd @ Arboretum Apts",,35.103988,-80.779029,
23000,"Providence Rd & Azalea Ridge Rd",,35.103872,-80.779227,
23010,"Providence Rd & Pineville-Matthews Rd",,35.101475,-80.778894,
23020,"Providence Rd & Pineville-Matthews Rd",,35.101269,-80.779110,
23030,"Walmart @ Arboretum",,35.097462,-80.783541,
23032,"Arboretum Cinemas Park & Ride",,35.099193,-80.780630,
23160,"Queens Rd & Edgehill Rd South",,35.201741,-80.832627,
23190,"Queens Rd & Ardsley Rd",,35.200591,-80.831479,
23240,"Queens Rd & Hopedale Ave",,35.196294,-80.827754,
23250,"Queens Rd @ Queens Towers Apts",,35.197294,-80.828513,
23260,"Queens Rd & Hopedale Ave",,35.196324,-80.828089,
23280,"Queens Rd & Pembroke Ave",,35.194483,-80.827966,
23310,"Queens Rd & Pembroke Ave",,35.194591,-80.827669,
23520,"Charlotte Douglas Airport (US Air Terminal)",,35.221117,-80.943078,
23590,"Randolph Rd & Caswell Rd",,35.210376,-80.824085,
23600,"Randolph Rd & Colonial Ave",,35.208945,-80.822717,
23610,"Randolph Rd & Colonial Ave",,35.208637,-80.822569,
23615,"Randolph Rd & Chase St",,35.207599,-80.821579,
23620,"Randolph Rd & Chase St",,35.207496,-80.821355,
23650,"Randolph Rd & Van Ness St",,35.205804,-80.819837,
23660,"Randolph Rd & Van Ness St",,35.205721,-80.819635,
23670,"Randolph Rd & Laurel Ave",,35.204848,-80.818842,
23680,"Randolph Rd & Laurel Ave",,35.203956,-80.818072,
23690,"Randolph Rd & Dotger Ave",,35.202851,-80.817019,
23700,"Randolph Rd & Dotger Ave",,35.202683,-80.816677,
23710,"Randolph Rd & Museum Plaza",,35.200297,-80.813762,
23720,"Randolph Rd & Cranbrook Ln",,35.200296,-80.813634,
23760,"Randolph Rd & Billingsley Rd",,35.191216,-80.810875,
23770,"Randolph Rd & Billingsley Rd",,35.191206,-80.811048,
23780,"Randolph Rd @ Randolph Park",,35.192913,-80.810966,
23790,"Randolph Rd & Wendwood Ln",,35.188117,-80.810083,
23800,"Randolph Rd & Meadowbrook Rd",,35.187818,-80.810056,
23860,"Randolph Rd & Canterbury Rd",,35.182358,-80.806142,
23910,"Randolph Rd & Canterbury Rd",,35.181870,-80.805532,
23940,"Randolph Rd & Cheltenham Rd",,35.179517,-80.803020,
23960,"Randolph Rd & Woodlark Ln",,35.179429,-80.802646,
23980,"Randolph Rd & Sharon Amity Rd",,35.174628,-80.797814,
23990,"Randolph Rd & Greenwich Rd",,35.178038,-80.800658,
23991,"Randolph Rd & Sam Drenan Rd",,35.198286,-80.810965,
24020,"Randolph Rd & Sharon Amity Rd",,35.176723,-80.799096,
24030,"Randolph Rd & Sharon Amity Rd",,35.176515,-80.798656,
24050,"Randolph Rd & Gaynor Rd",,35.174636,-80.797661,
24080,"Randolph Rd @ 4801",,35.171499,-80.796440,
24090,"Randolph Rd & Beckham Ct",,35.168785,-80.795497,
24110,"Randolph Rd & Hunter Ln",,35.168423,-80.795231,
24130,"Randolph Rd & Rembrandt Cir",,35.165843,-80.794274,
24150,"Randolph Rd & Willhaven Dr",,35.164083,-80.792502,
24160,"Randolph Rd & Shasta Ln",,35.163752,-80.791999,
24190,"Randolph Rd & Sardis Rd",,35.160764,-80.787432,
24280,"Rea Rd & Reacroft Dr",,35.103905,-80.807950,
24281,"Colony Rd & Wisley Blvd",,35.106523,-80.808235,
24282,"Colony Rd & Wisley Blvd",,35.106585,-80.808096,
24283,"Colony Rd & Abbotswood Dr",,35.114080,-80.804805,
24284,"Colony Rd & Abbotswood Dr",,35.114183,-80.804956,
24285,"Rea Rd & Reacroft Dr",,35.103775,-80.808193,
24286,"Colony Rd & Morrowick Rd",,35.119203,-80.807748,
24287,"Colony Rd & Morrowick Rd",,35.119442,-80.807962,
24290,"Rea Rd & Macandrew Dr",,35.100007,-80.808863,
24300,"Rea Rd & Carmel Estates Rd",,35.096827,-80.809615,
24315,"Rea Rd & Pineville-Matthews Rd",,35.086265,-80.812086,
24316,"Rea Rd & Pineville-Matthews Rd",,35.086301,-80.811863,
24320,"Rea Rd @ Calvary Park & Ride",,35.081935,-80.813474,
24330,"Rea Rd & Bevington Pl",,35.078366,-80.816507,
24340,"Rea Rd & Old Course Dr",,35.071279,-80.819251,
24350,"Rea Rd & Piper Glen Dr",,35.067162,-80.817795,
24360,"Rea Rd & Ballantyne Commons Pkwy",,35.059808,-80.812865,
24370,"Rea Rd & Piper Station Dr",,35.061197,-80.813481,
24470,"Remount Rd & Baltimore Ave",,35.206425,-80.870582,
24490,"Remount Rd & Tryon St",,35.206448,-80.870368,
24510,"Remount Rd & Brookhill Rd",,35.208554,-80.872944,
24520,"Remount Rd & Toomey Ave",,35.208791,-80.873429,
24530,"Remount & Barringer",,35.214418,-80.879378,
24560,"Remount Rd & Parker Dr",,35.220584,-80.883450,
24561,"Remount Rd & Parker Dr",,35.220520,-80.883245,
24580,"Rodman St & Burkland Dr",,35.195699,-80.804446,
24590,"Rodman St & Burkland Dr",,35.195734,-80.804450,
24600,"Rosa Parks Pl & Beatties Ford Rd",,35.273264,-80.855007,
24620,"Rose Thorn Pl & Pressley Rd",,35.195015,-80.894213,
24690,"Rowan St & Fair St",,35.257677,-80.892797,
24710,"Rowan St & Hoskins Rd",,35.257697,-80.895029,
24720,"5th and Martin st",,35.242096,-80.859356,
24730,"Rozzelles Ferry Rd & Trade St",,35.242263,-80.859794,
24760,"Rozzelles Ferry Rd & Lima Ave",,35.243478,-80.862107,
24770,"Rozzelles Ferry Rd & Lima Ave",,35.243615,-80.862472,
24800,"Rozzelles Ferry Rd & Turner Ave",,35.244818,-80.864670,
24810,"Rozzelles Ferry Rd & Turner Ave",,35.244857,-80.864986,
24820,"Rozzelles Ferry Rd & Gardener Ave",,35.245545,-80.866184,
24830,"Rozzelles Ferry Rd & Gardener Ave",,35.245472,-80.866239,
24840,"Rozzelles Ferry Rd & Smallwood Pl",,35.246125,-80.867370,
24850,"Rozzelles Ferry Rd & Smallwood Pl",,35.246360,-80.867994,
24860,"Rozzelles Ferry Rd & Zebulon Ave",,35.248063,-80.868962,
24870,"Rozzelles Ferry Rd & Zebulon Ave",,35.247859,-80.869011,
24880,"Rozzelles Ferry Rd & Judson Ave",,35.250460,-80.870176,
24890,"Rozzelles Ferry Rd & Judson Ave",,35.250340,-80.870301,
24905,"Rozzelles Ferry Rd @ 3020",,35.253412,-80.871708,
24920,"Rozzelles Ferry Rd & Coronet Way",,35.253893,-80.872262,
24940,"Rozzelles Ferry Rd & Norwood Dr",,35.255444,-80.874000,
24950,"Rozzelles Ferry Rd & Norwood Dr",,35.255379,-80.874109,
24955,"Rozzelles Ferry Rd @ 3245",,35.256412,-80.875375,
24960,"Rozzelles Ferry Rd & Lakewood Ave",,35.256460,-80.875286,
24970,"Rozzelles Ferry Rd & Oregon St",,35.257568,-80.876802,
25000,"Rozzelles Ferry Rd & Halsey St",,35.258465,-80.877923,
25010,"Rozzelles Ferry Rd & Lander St",,35.258223,-80.877679,
25020,"Rozzelles Ferry Rd & Honeywood Ave",,35.259868,-80.879085,
25030,"Rozzelles Ferry Rd & Dupree St",,35.259880,-80.879249,
25040,"Rozzelles Ferry Rd & Linwood Ave",,35.261755,-80.880732,
25050,"Rozzelles Ferry Rd & Linwood Ave",,35.262092,-80.881178,
25060,"Rozzelles Ferry Rd & Goff St",,35.263665,-80.882395,
25070,"Rozzelles Ferry Rd & Crigler St",,35.263482,-80.882343,
25080,"Rozzelles Ferry Rd & Hoskins Rd",,35.265652,-80.884251,
25090,"Rozzelles Ferry Rd & Hoskins Rd",,35.266084,-80.884481,
25120,"Rozzelles Ferry Rd & Manley St",,35.268919,-80.886839,
25130,"Rozzelles Ferry Rd & Manley St",,35.268947,-80.886970,
25140,"Rozzelles Ferry Rd & Lawton Rd",,35.271225,-80.889037,
25150,"Rozzelles Ferry Rd & Lawton Rd",,35.270754,-80.888446,
25170,"Rozzelles Ferry Rd @ 4810",,35.272566,-80.889969,
25180,"Rozzelles Ferry Rd @ 4909",,35.273277,-80.890740,
25190,"Rozzelles Ferry Rd & Salem Church Rd",,35.273818,-80.891319,
25200,"Rozzelles Ferry Rd & Salem Church Rd",,35.274937,-80.893523,
25210,"Rozzelles Ferry Rd & Hovis Rd",,35.275709,-80.895471,
25220,"Runnymede Ln & Barclay Downs Dr",,35.167881,-80.836795,
25250,"Runnymede Ln & Selwyn Ave",,35.170835,-80.840758,
25270,"Brevard St & Martin Luther King Jr Blvd",,35.222573,-80.843063,
25280,"Caldwell St & 3rd St",,35.221348,-80.842359,
25310,"College St & 6th St",,35.227712,-80.839776,
25330,"College St & 4th St",,35.225372,-80.843137,
25360,"College St & 3rd St",,35.224455,-80.844508,
25390,"College St & 8th St",,35.229222,-80.837706,
25410,"College St & 11th St",,35.231073,-80.835132,
25420,"Davidson St & 4th St",,35.222418,-80.838809,
25440,"Kings Dr & Baxter St",,35.209658,-80.836192,
25450,"Kings Dr & Torrence St",,35.206966,-80.836093,
25460,"Kings Dr & Henley Pl",,35.205537,-80.835990,
25480,"Kings Dr & Brunswick Ave",,35.203707,-80.836027,
25490,"Kings Dr & Ardsley Rd",,35.200454,-80.836331,
25500,"Kings Dr & East Blvd",,35.196341,-80.836814,
25510,"Kings Dr & Morehead St",,35.205484,-80.836083,
25530,"McDowell St & 3rd St",,35.218010,-80.838244,
25540,"McDowell St & Martin Luther King Jr Blvd",,35.217742,-80.838901,
25550,"McDowell St & Martin Luther King Jr Blvd",,35.217237,-80.839382,
25570,"McDowell St & Baxter St",,35.214967,-80.842980,
25580,"McDowell St & Baxter St",,35.214612,-80.843227,
25641,"Tryon St & Trade St",,35.226818,-80.843508,
25650,"4th St & Tryon St",,35.226379,-80.843945,
25660,"Tryon St & 3rd St",,35.225843,-80.845075,
25720,"Tryon St & 2nd St",,35.224794,-80.846619,
25800,"Tryon St & Morehead St",,35.221619,-80.850626,
25815,"Tryon St & Carson Blvd",,35.220191,-80.852030,
25830,"Tryon St & Catherine St",,35.218887,-80.853357,
25840,"Tryon St & Bland St",,35.217702,-80.854475,
25850,"Tryon St & Bland St",,35.217747,-80.854577,
25880,"Tryon St & Park Ave",,35.215391,-80.858200,
25890,"Tryon St & Park Ave",,35.215449,-80.857843,
25910,"Tryon St & West Blvd",,35.214089,-80.861730,
25920,"Tryon St & West Blvd",,35.213884,-80.862026,
25930,"Tryon St & Doggett St",,35.212824,-80.864447,
25940,"Tryon St & Woodcrest Ave",,35.212629,-80.864985,
25950,"Tryon St & Tremont Ave",,35.210796,-80.866634,
25960,"Tryon St & Tremont Ave",,35.211327,-80.866535,
25970,"Tryon St & Rampart St",,35.209881,-80.866938,
25980,"Tryon St & Dunavant St",,35.208291,-80.867212,
25990,"Tryon St & Brookhill Rd",,35.208044,-80.867542,
26020,"Tryon St & Remount Rd",,35.206286,-80.868961,
26030,"Tryon St & Remount Rd",,35.206210,-80.868859,
26040,"Tryon St & Herman Ave",,35.199187,-80.874536,
26050,"Tryon St & Herman Ave",,35.199097,-80.874804,
26080,"Tryon st & Clanton Rd",,35.195441,-80.877471,
26090,"Tryon St & Blairhill Rd",,35.195182,-80.877867,
26100,"Tryon St & Bowman Rd",,35.192812,-80.879733,
26110,"Tryon St & Bowman Rd",,35.192448,-80.879805,
26112,"Tryclan Dr & S Tryon St",,35.194448,-80.877350,
26130,"Tryon St & Cama St",,35.190718,-80.881158,
26140,"Tryon St & Cama St",,35.190831,-80.881284,
26160,"Tryon St & Peterson Dr",,35.189040,-80.882646,
26170,"Tryon St & Peterson Dr",,35.189040,-80.882478,
26180,"Tryon St & Orchard Cir",,35.187156,-80.883985,
26190,"Tryon St & Orchard Cir",,35.187193,-80.884109,
26210,"Tryon St & Pressley Rd",,35.185158,-80.885759,
26220,"Tryon St & Pressley Rd",,35.184605,-80.885978,
26360,"Tryon St @ Whitehall Commons entrance",,35.145070,-80.927579,
26370,"Tryon St & I-485",,35.143697,-80.929219,
26380,"Tryon St @ White Hall Commons",,35.144133,-80.928403,
26430,"Tryon St & Sandy Porter Rd",,35.134218,-80.939382,
26470,"Sam Drenan Rd & Stancill Pl",,35.197465,-80.806738,
26480,"Sam Drenan Rd & Orange St",,35.198841,-80.809414,
26490,"Sam Drenan Rd & Leroy St",,35.197617,-80.806702,
26700,"Sardis Rd North & Crownpoint Executive Dr",,35.145112,-80.727635,
26702,"Sardis Rd & Independence Blvd",,35.146531,-80.725087,
26750,"Scott Ave & Blythe Blvd",,35.204958,-80.840856,
26770,"Scott Ave & Pierce St",,35.203417,-80.841541,
26790,"Scott Ave & Filmore Ave",,35.201881,-80.842952,
26820,"Seigle Ave & Otts St",,35.226150,-80.824636,
26840,"10th St & Seigle Ave",,35.224095,-80.827304,
26850,"Seigle Ave & Greenway Crescent Ln",,35.224043,-80.826301,
26860,"Seigle Ave & Greenway Crescent Ln",,35.224305,-80.826212,
26870,"Seigle Ave & Otts St",,35.226157,-80.824552,
26890,"Seigle Ave & Belmont Ave",,35.228197,-80.822498,
26909,"Selwyn Ave @ Queens University",,35.188264,-80.831632,
26910,"Selwyn Ave @ Queens University",,35.187516,-80.832246,
26919,"Selwyn Ave & Westfield Rd",,35.183459,-80.835960,
26920,"Selwyn Ave & Westfield Rd",,35.184108,-80.835593,
26950,"Selwyn Ave & Sterling Rd",,35.179572,-80.837045,
26970,"Selwyn Ave & Sterling Rd",,35.179216,-80.836931,
27000,"Selwyn Ave & Tranquil Ave",,35.174757,-80.839337,
27010,"Selwyn Ave & Colony Rd",,35.174149,-80.840174,
27020,"Selwyn Ave & Hassell Pl",,35.172010,-80.840826,
27100,"Seymour Dr & Faber St",,35.217258,-80.906436,
27110,"Seymour Dr & Faber St",,35.217410,-80.907215,
27120,"Seymour Dr & Mayfair Ave",,35.217743,-80.907767,
27150,"Seymore & Plato",,35.219643,-80.911233,
27160,"Seymour & Plato",,35.219571,-80.911094,
27200,"Shamrock Dr & Airlie St",,35.235687,-80.785674,
27210,"Shamrock Dr & Hilliard Dr",,35.235538,-80.786089,
27220,"Shamrock Dr & Palm Ave",,35.236614,-80.784518,
27230,"Shamrock Dr & Elkwood Cir",,35.237359,-80.783975,
27240,"Shamrock Dr & Springway Dr",,35.238288,-80.782994,
27250,"Shamrock Dr & Connecticut Ave",,35.237994,-80.780023,
27255,"Shamrock Dr & Flamingo Av",,35.238580,-80.782024,
27260,"Shamrock Dr & Connecticut Ave",,35.238031,-80.779941,
27270,"Shamrock Dr & Cardiff Ave",,35.237446,-80.777858,
27275,"Shamrock Dr & Finchley Rd",,35.236176,-80.774139,
27280,"Shamrock Dr & Eastway Dr",,35.237056,-80.776747,
27290,"Shamrock Dr & Eastway Dr",,35.236283,-80.774690,
27300,"Shamrock Dr @ Windsor Harbor Apts",,35.234750,-80.771147,
27310,"Shamrock Dr & Finchley Dr",,35.235498,-80.773071,
27320,"Shamrock Dr @ Windsor Harbor Apts",,35.234480,-80.770796,
27330,"Shamrock Dr & Glenville Ave",,35.234376,-80.767960,
27340,"Shamrock Dr @ Charlotte Museum of History",,35.234361,-80.767250,
27350,"Shamrock Dr @ Wesley Nursing Home",,35.234885,-80.764310,
27360,"Shamrock Dr & Foxford Pl",,35.235109,-80.763689,
27370,"Shamrock Dr & Foxford Pl",,35.235056,-80.762180,
27380,"Shamrock Dr & Tipperary Pl",,35.234755,-80.760985,
27500,"Sharon Amity Rd & Randolph Rd",,35.175659,-80.799490,
27510,"Sharon Amity Rd @ 338 (UPS Store)",,35.174618,-80.802004,
27520,"Sharon Amity Rd & Hardwicke Rd",,35.176632,-80.795609,
27530,"Sharon Amity Rd & Randolph Rd",,35.175132,-80.800711,
27540,"Sharon Amity Rd & Hardwicke Rd",,35.176538,-80.796461,
27560,"Sharon Amity Rd @ 309 (Cotswold Plaza II)",,35.174608,-80.801790,
27570,"Sharon Amity Rd & Clover Rd",,35.173218,-80.804845,
27580,"Sharon Amity Rd & Water Oak Rd",,35.178959,-80.790262,
27590,"Sharon Amity Rd & Night Heron Ln",,35.178755,-80.791105,
27600,"Sharon Amity Rd & Crosby Rd",,35.172519,-80.806011,
27633,"Sharon Amity Rd & Lyttleton Dr",,35.177192,-80.783812,
27635,"Sharon Amity Rd & Lyttleton Dr",,35.177833,-80.784625,
27650,"Sharon Amity Rd & Tangle Dr",,35.178554,-80.779719,
27660,"Sharon Amity Rd & Delane Ave",,35.181657,-80.776537,
27670,"Sharon Amity Rd & Delane Ave",,35.181660,-80.776664,
27690,"Sharon Amity Rd & Montague St",,35.185451,-80.775086,
27700,"Sharon Amity Rd & Monroe Rd",,35.188731,-80.772915,
27730,"Sharon Amity Rd & Buena Vista Ave",,35.192349,-80.769070,
27760,"Sharon Amity Rd & Holbrook Dr",,35.195632,-80.765201,
27770,"Sharon Amity Rd & Amity Pl",,35.196838,-80.762770,
27780,"Sharon Amity Rd & Amity Springs Dr",,35.199228,-80.760927,
27790,"Sharon Amity Rd & Pierson Dr",,35.197120,-80.762635,
27800,"Sharon Amity Rd & Amity Springs Dr",,35.199104,-80.760776,
27810,"Sharon Amity Rd & Albemarle Rd",,35.201012,-80.760734,
27820,"Sharon Amity Rd & Albemarle Rd",,35.202435,-80.760380,
27830,"Sharon Amity Rd & Campbell Dr",,35.204185,-80.760018,
27840,"Sharon Amity Rd & Clearmont Ave",,35.206057,-80.758493,
27850,"Sharon Amity Rd & Clearmont Ave",,35.207082,-80.758137,
27860,"Sharon Amity Rd & Central Ave",,35.208195,-80.757563,
27870,"Sharon Amity Rd & Central Ave",,35.208656,-80.757605,
27890,"Sharon Amity Rd & Central Ave",,35.211151,-80.756647,
27910,"Sharon Amity Rd & Central Ave",,35.211779,-80.756564,
27920,"Sharon Amity Rd & Wilora Lake Rd",,35.214307,-80.755493,
27950,"Sharon Amity Rd & Auburndale Rd",,35.215568,-80.755266,
27970,"Sharon Amity Rd & Tarrywood Ln",,35.218552,-80.753674,
27980,"Sharon Amity Rd & Tarrywood Ln",,35.218741,-80.753646,
28000,"Sharon Amity Rd & Sudbury Rd",,35.219682,-80.752645,
28020,"Sharon Amity Rd & Abbeydale Dr",,35.220620,-80.751811,
28025,"Sharon Amity Rd & Twisted Oaks Rd",,35.222340,-80.750335,
28030,"Sharon Amity Rd & Hickory Grove Rd",,35.223183,-80.749814,
28050,"Sharon Amity Rd & Hickory Grove Rd",,35.224182,-80.748723,
28060,"Sharon Amity Rd & Shamrock Dr",,35.225897,-80.747575,
28070,"Sharon Amity Rd & Sharon Chase Dr",,35.229069,-80.744126,
28095,"Sharon Amity Rd & Shamrock Dr",,35.226318,-80.747644,
28100,"Sharon Amity Rd & Kimmerly Glen Ln",,35.230395,-80.741760,
28105,"Sharon Amity Rd & Sharon Chase Dr",,35.229227,-80.744222,
28115,"Sharon Amity Rd & Kimmerly Glen Ln",,35.229638,-80.743277,
28117,"Sharon Amity @ 5801",,35.235696,-80.738364,
28120,"Sharon Amity Rd & Milton Rd",,35.234155,-80.738601,
28125,"Sharon Amity Rd & Milton Rd",,35.234095,-80.738834,
28140,"Sharon Lakes Rd & Harvest Ln",,35.120477,-80.870152,
28145,"Sharon Lakes Rd & Smoke Ridge Ct",,35.120014,-80.869996,
28150,"Sharon Lakes Rd & Meadowlark Ln",,35.123291,-80.869621,
28170,"Sharon Lakes Rd & Shady Oak Trl",,35.125188,-80.872424,
28190,"Sharon Lakes Rd & South Blvd",,35.127578,-80.875533,
28200,"Sharon Lakes Rd & South Blvd",,35.127135,-80.874506,
28210,"Sharon Lakes Rd & Stoney Point Ln",,35.123259,-80.869597,
28220,"Sharon Lakes Rd & Sharon Rd West",,35.118672,-80.869780,
28320,"Sharon Rd West & Maggie Ln",,35.119070,-80.879907,
28330,"Sharon Rd West & Sharonbrook Dr",,35.118499,-80.878435,
28340,"Sharon Rd West & Sharonbrook Dr",,35.117573,-80.876142,
28350,"Sharon Rd West & Regent Park Ln",,35.117815,-80.873657,
28370,"Sharon Rd West & Sharon Lakes Rd",,35.118338,-80.871270,
28690,"Sharon Rd & Sharon View Rd",,35.143751,-80.833104,
28760,"Sharon Rd @ SouthPark Mall Entrance",,35.151465,-80.828559,
28810,"Sharon Rd & Coltsgate Rd",,35.148982,-80.830447,
28840,"Sharon Rd & Fairview Rd",,35.146937,-80.831760,
28850,"Sharon Rd & Fairview Rd",,35.146748,-80.831548,
28870,"Sharon Rd @ Sharon Towers Apts",,35.143740,-80.833318,
28874,"Sharon Rd @ Sharon Tower Apts",,35.142011,-80.834708,
28875,"Sharon Rd @ Sharon Presbyterian Church",,35.141602,-80.834888,
28880,"Sharon Rd & Sulkirk Rd",,35.138873,-80.838290,
28890,"Sharon Rd & Champaign St",,35.137955,-80.838660,
28915,"Sharon Rd & Coleman Cir",,35.134336,-80.839026,
28940,"Sharon Rd & Quail Hollow Rd",,35.132537,-80.840412,
28950,"Sharon Rd & Sharon Rd",,35.133407,-80.839203,
28970,"Sharon Rd & Sherbrooke Dr",,35.129657,-80.843287,
28980,"Sharon Rd & Sherbrooke Dr",,35.129497,-80.843474,
28990,"Sharon Rd & Sharon Commons Ln",,35.127970,-80.846109,
29000,"Sharon Rd & Sharon Acres Rd",,35.127856,-80.846183,
29030,"Sharon Rd & Greencastle Dr",,35.124243,-80.852253,
29032,"Sharon Rd & Greencastle Dr",,35.124359,-80.852003,
29040,"Sharon Rd West & Maggie Ln",,35.118742,-80.878722,
29060,"Sharon Rd West & Winter Oaks Ln",,35.117955,-80.876690,
29080,"Sharon Rd West & Regent Park Ln",,35.117774,-80.874361,
29100,"Sharon Rd West & Sharon Lakes Rd",,35.118429,-80.871296,
29130,"Skyland Ave & Sam Drenan Rd",,35.199245,-80.807109,
29140,"Skyland Ave & Marney Ave",,35.200485,-80.806139,
29150,"Skyland Ave @ 417",,35.201603,-80.805253,
29160,"Skyland Ave & Dunn Ave",,35.202395,-80.804668,
29260,"South Blvd & Templeton Ave",,35.216989,-80.851472,
29270,"South Blvd & Caldwell St",,35.217108,-80.851049,
29280,"South Blvd & Bland St",,35.215861,-80.852863,
29290,"South Blvd & Bland St",,35.215545,-80.853036,
29300,"South Blvd & Rensselaer Ave",,35.214764,-80.854482,
29310,"South Blvd & Rensselaer Ave",,35.214732,-80.854237,
29320,"South Blvd & Park Ave",,35.213305,-80.855882,
29330,"South Blvd & Kingston Ave",,35.213077,-80.856402,
29620,"South Blvd & Whitton St",,35.191070,-80.874596,
29630,"South Blvd & Old Pineville Rd",,35.187966,-80.875725,
29640,"South Blvd & Scaleybark Rd",,35.188378,-80.875570,
29650,"South Blvd @ 4200",,35.186075,-80.875735,
29660,"South Blvd @ 4203",,35.186071,-80.875638,
29690,"South Blvd & Briabend Dr",,35.181931,-80.875703,
29700,"South Blvd & Briabend Dr",,35.181922,-80.875800,
29710,"South Blvd @ 4555",,35.180309,-80.875736,
29720,"South Blvd & Sterling Dr",,35.179912,-80.875817,
29730,"South Blvd & Woodlawn Rd",,35.177563,-80.875947,
29740,"South Blvd & Woodlawn Rd",,35.177354,-80.875812,
29750,"South Blvd & Woodlawn Rd",,35.174512,-80.876028,
29760,"South Blvd & Inwood Dr",,35.174740,-80.875839,
29780,"South Blvd @ 4900 (ACME Southern)",,35.171415,-80.876020,
29790,"South Blvd & Seneca Pl",,35.169716,-80.876038,
29800,"South Blvd @ 5017 (Childcare Network)",,35.169487,-80.875942,
29810,"South Blvd & Seneca Pl",,35.167377,-80.876081,
29820,"South Blvd & Seneca Pl",,35.167562,-80.875975,
29830,"South Blvd & Tyvola Rd",,35.166131,-80.875975,
29840,"South Blvd & Tyvola Rd",,35.164530,-80.876220,
29850,"South Blvd & Grover Rd",,35.163162,-80.876212,
29860,"South Blvd & Tyvola Rd",,35.163184,-80.875967,
29870,"South Blvd @ 5540",,35.159839,-80.876242,
29880,"South Blvd @ 5601 (Rent-A-Center)",,35.160214,-80.876107,
29890,"South Blvd & Emerywood Dr",,35.157659,-80.876289,
29900,"South Blvd & Emerywood Dr",,35.157334,-80.876131,
29920,"South Blvd & Archdale Dr",,35.154233,-80.876354,
29930,"South Blvd & Archdale Dr",,35.153621,-80.876250,
29940,"South Blvd & Archdale Dr",,35.151724,-80.876383,
29950,"South Blvd & Wicker Dr",,35.149957,-80.876329,
29960,"South Blvd & Wicker Dr",,35.149263,-80.876430,
29970,"South Blvd @ 6500",,35.146165,-80.876486,
29980,"South Blvd & Wisteria Dr",,35.146656,-80.876357,
30000,"South Blvd & Edgewater Dr",,35.143078,-80.876566,
30010,"South Blvd & Edgewater Dr",,35.143284,-80.876397,
30020,"South Blvd & Larkfield Ln",,35.140435,-80.876478,
30030,"South Blvd & Arrowood Rd",,35.139072,-80.876644,
30040,"South Blvd & Starbrook Dr",,35.137146,-80.876138,
30060,"South Blvd & Starmount Cove Ln",,35.135795,-80.875870,
30070,"South Blvd & Hill Rd",,35.130369,-80.875604,
30080,"South Blvd & Hill Rd",,35.130407,-80.875702,
30150,"South Blvd @ 8916 (Hendrick Honda)",,35.115955,-80.883307,
30160,"South Blvd & Westinghouse Blvd",,35.112632,-80.883016,
30170,"South Blvd & Cressida Dr",,35.113794,-80.883137,
30180,"South Blvd & Longleaf Dr",,35.110304,-80.882416,
30190,"Southpark Community Transit Center",,35.153163,-80.831438,
30230,"Spring Garden Ln & Derrydowne Dr",,35.272241,-80.777237,
30240,"Spring Garden Ln & Snow White Ln",,35.270330,-80.777681,
30360,"Statesville Ave & Graham St",,35.239493,-80.836756,
30390,"Statesville Ave & Oliver St",,35.240770,-80.836811,
30400,"Statesville Ave & Callahan St",,35.244001,-80.836697,
30410,"Statesville Ave & Oaklawn Ave",,35.243886,-80.836486,
30430,"Statesville Ave & Oaklawn Ave",,35.245706,-80.836390,
30440,"Statesville Ave & Woodward Ave",,35.248427,-80.835882,
30460,"Statesville Ave & Kohler Ave",,35.250784,-80.835935,
30480,"Statesville Ave & Dearborn Ave",,35.252893,-80.835993,
30540,"Statesville Ave & Moretz Ave",,35.255634,-80.836121,
30580,"Statesville Ave & Atando Ave",,35.260449,-80.836923,
30590,"Statesville Ave & Whittington St",,35.264004,-80.837094,
30600,"Statesville Ave & Alma Ct",,35.266354,-80.837261,
30615,"Statesville Rd & Nevin Rd",,35.282080,-80.834812,
30616,"Statesville Rd & Nevin Rd",,35.282135,-80.834592,
30620,"Statesville Rd & Starita Rd",,35.278922,-80.834250,
30640,"Statesville Ave & Samuel St",,35.260457,-80.837015,
30650,"Statesville Ave & Whittington St",,35.264234,-80.837311,
30660,"Statesville Ave & Alma Ct",,35.266504,-80.837483,
30690,"Statesville Rd & Distribution Center Dr",,35.275650,-80.835497,
30695,"Statesville Rd & Burch Dr",,35.275825,-80.835183,
30760,"Stonewall St & Mint St",,35.225148,-80.850100,
30940,"Sugar Creek Rd & Tryon St",,35.259756,-80.794916,
30941,"Sugar Creek @ 127",,35.257013,-80.794349,
30942,"Sugar Creek & Greensboro St",,35.255447,-80.793504,
30950,"Sugar Creek Rd & Tryon St",,35.260173,-80.795153,
30951,"Sugar Creek @ 126",,35.256939,-80.794559,
30952,"Sugar Creek @ Greensboro St",,35.255034,-80.793460,
30960,"Sugar Creek Rd & Rolling Hill Dr",,35.261856,-80.795087,
30970,"Sugar Creek Rd & Glory St",,35.262046,-80.795232,
30980,"Sugar Creek Rd & Hondures Dr",,35.263168,-80.795002,
30990,"Sugar Creek Rd & Hondures Dr",,35.264089,-80.795129,
31000,"Sugar Creek Rd & Sofley Rd",,35.264933,-80.794930,
31010,"Sugar Creek Rd & Cinderella Rd",,35.265728,-80.795058,
31020,"Sugar Creek Rd & Argyle Dr West",,35.268068,-80.794617,
31030,"Sugar Creek Rd & Rutgers Ave",,35.268511,-80.794707,
31040,"Sugar Creek Rd & Munsee St",,35.269601,-80.794302,
31060,"Sugar Creek Rd & Munsee St",,35.270287,-80.794324,
31070,"Sugar Creek Rd & Hidden Valley Rd",,35.272200,-80.793753,
31080,"Sugar Creek Rd & Reagan Dr",,35.275220,-80.793367,
31140,"Sunset Rd & Hamilton Cir",,35.305893,-80.855466,
31150,"Sunset Rd & Northpark Blvd",,35.306180,-80.855077,
31160,"Sunset Rd & Banner Elk Dr",,35.306540,-80.852748,
31170,"Sunset Rd @ 4525",,35.306798,-80.852238,
31180,"Sunset Rd & Milhaven Ln",,35.308017,-80.843663,
31190,"Sunset Rd @ 5005",,35.308211,-80.843691,
31200,"Sunset Rd @ 5201",,35.308746,-80.841031,
31210,"Sunset Rd @ 5214",,35.308431,-80.841695,
31260,"Tarheel Rd & Hovis Rd",,35.266500,-80.900062,
31270,"Tarheel Rd & Exchange St",,35.266852,-80.903726,
31290,"Tennessee Ave & Honeywood Ave",,35.264107,-80.874286,
31300,"10th St & Seigle Ave",,35.224194,-80.827660,
31320,"The Plaza & Marguerite Ave",,35.233410,-80.806906,
31340,"The Plaza & Brook Rd",,35.236269,-80.802799,
31341,"The Plaza & Clemson Ave",,35.236651,-80.802255,
31350,"The Plaza & Holt St",,35.237081,-80.801059,
31370,"The Plaza & Matheson Ave",,35.237548,-80.800114,
31400,"The Plaza & 36th St",,35.241451,-80.796181,
31420,"The Plaza & Herrin Ave",,35.242489,-80.795139,
31430,"The Plaza & Anderson St",,35.243579,-80.794181,
31440,"The Plaza & Dade St",,35.244643,-80.792942,
31450,"The Plaza & Sweetbriar St",,35.245569,-80.791656,
31460,"The Plaza & Sweetbriar St",,35.245502,-80.791554,
31470,"The Plaza & Sugar Creek Rd",,35.246515,-80.788085,
31480,"The Plaza & Sugar Creek Rd",,35.246465,-80.788493,
31490,"The Plaza & Commercial Ave",,35.247662,-80.785598,
31500,"The Plaza & Trembeth Dr",,35.248053,-80.784997,
31520,"The Plaza & Blackwood Ave",,35.248729,-80.783477,
31540,"The Plaza & Eastway Dr",,35.249173,-80.781919,
31550,"The Plaza & Plaza Walk Dr",,35.250389,-80.778193,
31560,"The Plaza & Plaza Walk Dr",,35.249966,-80.779181,
31590,"The Plaza & Malibu Dr",,35.250744,-80.775589,
31600,"The Plaza & Vanderbrook Rd",,35.250228,-80.774455,
31610,"The Plaza & Highlake Dr",,35.250088,-80.773675,
31620,"The Plaza & Harwyn Dr",,35.249474,-80.772238,
31630,"The Plaza & Aintree Rd",,35.249360,-80.771388,
31640,"The Plaza & Glenfiddich Dr",,35.249167,-80.769581,
31650,"The Plaza & Glenfiddich Dr",,35.249308,-80.769175,
31660,"The Plaza & Lakedell Dr",,35.249227,-80.766809,
31670,"The Plaza & Lakedell Dr",,35.249366,-80.767401,
31690,"The Plaza & Shannonhouse Dr",,35.250139,-80.762142,
31700,"The Plaza & Shannonhouse Dr",,35.250197,-80.762434,
31720,"The Plaza & Vickery Dr",,35.250699,-80.760418,
31730,"The Plaza & Vickery Dr",,35.250900,-80.760255,
31740,"The Plaza & Frank Dr",,35.251128,-80.758749,
31750,"The Plaza & Cove Creek Dr",,35.251125,-80.757831,
31760,"The Plaza & Bridgeport Dr",,35.249579,-80.755265,
31770,"The Plaza & Ilford St",,35.249839,-80.755931,
31780,"The Plaza & Kildare Dr",,35.248591,-80.754008,
31800,"The Plaza & Milton Rd",,35.248117,-80.752989,
31810,"The Plaza & Fairmarket Pl",,35.250403,-80.748670,
31830,"The Plaza @ Family Dollar",,35.249037,-80.750403,
31840,"The Plaza @ 6301 (car wash)",,35.249211,-80.750470,
31850,"The Plaza & Barrington Dr",,35.250400,-80.748486,
31860,"The Plaza & McBride St",,35.251537,-80.746832,
31880,"The Plaza & Lake Dr",,35.253321,-80.744079,
31890,"The Plaza & McBride St",,35.252833,-80.745004,
31900,"The Plaza & Plaza Ln",,35.254335,-80.742573,
31910,"The Plaza & Karenstone Dr",,35.254337,-80.742419,
31930,"The Plaza & WT Harris Blvd",,35.256514,-80.738948,
31940,"The Plaza & Hunters Crossing Ln",,35.256632,-80.738971,
32120,"Thriftwood Dr & Interurban Ave",,35.259009,-80.903834,
32140,"Thriftwood Dr & Marble St",,35.256875,-80.902819,
32150,"Thriftwood Dr & Freedom Dr",,35.254544,-80.903039,
32160,"Tipperary Pl & Stonehaven Dr",,35.235133,-80.760323,
32180,"Tipperary Pl & Foxford Pl",,35.237679,-80.759320,
32190,"Tipperary Pl & Foxford Pl",,35.237637,-80.759362,
32250,"Tipperary Pl & Bankston Pl",,35.238812,-80.757753,
32260,"Tipperary Pl & Slagle Dr",,35.239207,-80.756469,
32290,"Tipperary Pl & Slagle Dr",,35.239234,-80.756509,
32300,"Tipperary Pl & Vinetta Ct",,35.240492,-80.754249,
32310,"Tipperary Pl & Marbetta Ln",,35.241391,-80.752615,
32330,"Tipperary Pl & Vinetta Ct",,35.240585,-80.754261,
32350,"Tipperary Pl & Marbetta Ln",,35.241255,-80.753146,
32370,"Tipperary Pl & Milton Rd",,35.242103,-80.751584,
32437,"Tuckaseegee Rd & Burkholder Rd",,35.244832,-80.933888,
32455,"Tom Hunter Rd & Echo Glen Rd",,35.278177,-80.782549,
32470,"Tom Hunter Rd & White Plains Rd",,35.276857,-80.788048,
32480,"Tom Hunter Rd & Vancouver Dr",,35.277258,-80.789196,
32490,"Tom Hunter Rd & Reagan Dr",,35.278874,-80.790164,
32550,"Transit Center- Bay X",,35.224447,-80.841852,
32590,"Tuckaseegee Rd & Parkway Ave",,35.242556,-80.879032,
32600,"Tuckaseegee Rd & Coker St",,35.242500,-80.879102,
32610,"Tuckaseegee Rd & Enderly Rd",,35.243433,-80.881146,
32620,"Tuckaseegee Rd & Enderly Rd",,35.243314,-80.881006,
32630,"Tuckaseegee Rd & McQuay St",,35.243939,-80.882197,
32640,"Tuckaseegee Rd & Karendale Ave",,35.244108,-80.882792,
32650,"Tuckaseegee Rd & Karendale Ave",,35.244697,-80.883677,
32660,"Tuckaseegee Rd & Glenwood Dr",,35.245457,-80.885665,
32670,"Tuckaseegee Rd & Glenwood Dr",,35.245609,-80.885816,
32675,"Tuckaseegee Rd & Hazel St",,35.245974,-80.888539,
32685,"Tuckaseegee Rd & Hazel St",,35.246081,-80.888146,
32700,"Tuckaseegee Rd & Tennyson Dr",,35.246557,-80.891094,
32720,"Tuckaseegee Rd & I-85",,35.246042,-80.898506,
32730,"Tuckaseegee Rd & Edgewood Rd",,35.246215,-80.898848,
32736,"Tuckaseegee Rd & Ashley Rd",,35.245163,-80.896349,
32740,"Tuckaseegee Rd & Cheshire Ave",,35.246726,-80.902207,
32750,"Tuckaseegee Rd & J Julian Ln",,35.248180,-80.907785,
32751,"Tuckaseegee Rd & Timberbrook Dr",,35.248530,-80.908615,
32760,"Tuckaseegee Rd & Mulberry Pond Dr",,35.248326,-80.910655,
32761,"Tuckaseegee Rd & Mulberry Pond Dr",,35.248487,-80.910627,
32770,"Tuckaseegee Rd & Heather Glen Ln",,35.246363,-80.915615,
32771,"Tuckaseegee Rd & Heather Glen Ln",,35.246685,-80.915076,
32780,"Tuckaseegee Rd & Forestbrook Dr",,35.245071,-80.917762,
32781,"Tuckaseegee Rd & Mulberry Church Rd",,35.244730,-80.919648,
32791,"Tuckaseegee Rd & Toddville Rd",,35.244684,-80.926326,
32870,"Tyvola Rd & I-77",,35.163530,-80.892480,
32880,"Tyvola Rd & Westpark Dr",,35.163189,-80.886647,
32890,"Tyvola Rd & 77 Center Dr",,35.163968,-80.884975,
32900,"Tyvola Rd & I-77",,35.163762,-80.892311,
32910,"Tyvola Rd & 77 Center Dr",,35.164188,-80.884813,
32990,"Marion Diehl",,35.160252,-80.859735,
33010,"UNCC- Mary Alexander Rd & Van Landingham Rd",,35.305375,-80.727438,
33030,"University City Blvd & Broadrick Blvd",,35.302689,-80.729121,
33035,"University City Blvd & Mark Twain Rd",,35.299801,-80.734196,
33050,"University City Blvd @ Town Center Plaza",,35.296964,-80.740419,
33060,"University City Blvd & WT Harris Blvd",,35.297473,-80.740010,
33080,"Valen Way & Mt Kisco Dr",,35.272886,-80.785103,
33150,"5th St & Irwin Ave",,35.235712,-80.851682,
33151,"5th St & Irwin Ave",,35.235820,-80.851622,
33200,"5th St & Frazier Ave",,35.239370,-80.856519,
33210,"5th St & Frazier Ave",,35.239286,-80.856246,
33240,"5th St & Trade St",,35.241335,-80.858142,
33250,"4th St Ext & Victoria Ave",,35.232935,-80.853408,
33260,"4th St Ext & Victoria Ave",,35.232870,-80.853825,
33270,"4th St Ext & Sycamore St",,35.233030,-80.855447,
33280,"4th St Ext & Sycamore St",,35.233135,-80.855406,
33320,"4th St Ext & Grandin Rd",,35.234930,-80.860732,
33330,"4th St Ext & Grandin Rd",,35.235190,-80.861515,
33335,"4th St Ext & Wesley Heights Way",,35.236788,-80.864266,
33336,"Tuckaseegee Rd & Wesley Heights Way",,35.236749,-80.864902,
33351,"Cedar St @ Dove's Nest",,35.229025,-80.854177,
33371,"Morehead St & Millerton Ave",,35.227854,-80.872959,
33430,"Morehead St & Grandin Rd",,35.229100,-80.865636,
33440,"Morehead St & Grandin Rd",,35.229209,-80.864629,
33470,"Morehead St & Millerton Av",,35.227999,-80.872411,
33520,"36th St & Alexander St",,35.246499,-80.803046,
33530,"36th St & Spencer St",,35.245192,-80.801506,
33540,"36th St & Charles Ave",,35.244170,-80.800300,
33550,"36th St & Holt St",,35.242557,-80.798369,
33560,"36th St & The Plaza",,35.241362,-80.797006,
33570,"Trade St & Tryon St",,35.227302,-80.843420,
33640,"Trade St & Church St",,35.228432,-80.844467,
33680,"Trade St & Pine St",,35.229409,-80.845478,
33690,"Trade St & Graham St",,35.230300,-80.846513,
33710,"Trade St & Graham St",,35.230725,-80.847313,
33720,"Trade St & Wilkes Pl",,35.231219,-80.847562,
33750,"Trade St & Cedar St",,35.232522,-80.849497,
33770,"Trade St & Cedar St",,35.233593,-80.850641,
33831,"Trade St & Frazier Ave",,35.237020,-80.858519,
33840,"Trade St & Montgomery St",,35.238999,-80.858477,
33842,"Trade St & 5th St",,35.241040,-80.858510,
33890,"Tyvola Rd & North Falls Dr",,35.186907,-80.921594,
33891,"Tyvola Rd & North Falls Dr",,35.186246,-80.920987,
33980,"Watson St & Griffith St",,35.502192,-80.850484,
33990,"Welling Ave & Hoskins Rd",,35.261215,-80.890640,
34070,"West Blvd & Worthington Ave",,35.216170,-80.867761,
34080,"West Blvd & Merriman Ave",,35.217066,-80.869744,
34100,"West Blvd & Merriman Ave",,35.217091,-80.870066,
34120,"West Blvd & I-77",,35.217618,-80.870809,
34140,"West Blvd & Barringer Dr",,35.217803,-80.873944,
34150,"West Blvd & Barringer Dr",,35.217690,-80.873583,
34160,"West Blvd @ 1150",,35.217213,-80.875832,
34170,"West Blvd @ 1238",,35.216924,-80.877627,
34180,"West Blvd @ Greater Mt Sinai Baptist",,35.216810,-80.877742,
34190,"West Blvd & Fordham Rd",,35.216715,-80.880144,
34200,"West Blvd & Fordham Rd",,35.216798,-80.880294,
34210,"West Blvd @ 1520",,35.216602,-80.882101,
34220,"West Blvd & Remount Rd",,35.216314,-80.882774,
34230,"West Blvd & Beech Nut Rd",,35.215132,-80.887029,
34250,"West Blvd & Remount Rd",,35.216118,-80.884236,
34260,"West Blvd @ 1603",,35.215923,-80.884553,
34300,"West Blvd & Dr Carver Rd",,35.214401,-80.888566,
34320,"West Blvd & Walton Rd",,35.213196,-80.891495,
34330,"West Blvd & Dr Carver Rd",,35.214375,-80.889022,
34340,"West Blvd & Walton Rd",,35.213460,-80.891287,
34360,"West Blvd & Donald Ross Rd",,35.212396,-80.893955,
34400,"West Blvd & Romare Bearden Dr",,35.211681,-80.895773,
34420,"West Blvd & Romare Bearden Dr",,35.211918,-80.895367,
34440,"West Blvd & James St",,35.211649,-80.897631,
34450,"West Blvd & Amay James Ave",,35.211444,-80.901544,
34480,"West Blvd & Elmin St",,35.211588,-80.899565,
34500,"West Blvd & Ross Ave",,35.211500,-80.898196,
34520,"West Blvd & Morning Dr",,35.211450,-80.899967,
34540,"West Blvd & Amay James Ave",,35.211237,-80.901978,
34560,"West Blvd & Tyvola Rd",,35.210847,-80.904259,
34580,"West Blvd & Walter St",,35.211130,-80.903462,
34610,"West Blvd & Old Steele Creek Rd",,35.210363,-80.907023,
34620,"West Blvd & Old Steele Creek Rd",,35.210388,-80.907561,
34650,"West Blvd & Kenhill Dr",,35.209682,-80.910332,
34670,"West Blvd & Kenhill Dr",,35.210169,-80.908893,
34690,"West Blvd @ 2838",,35.209619,-80.911151,
34710,"West Blvd & Holabird Ln",,35.208551,-80.914659,
34750,"West Blvd & Renaissance Way",,35.206900,-80.919961,
34760,"West Blvd & Leake St",,35.207895,-80.916626,
34790,"West Blvd & Holabird Ln",,35.208406,-80.914567,
34850,"West Blvd & Airport Dr",,35.204510,-80.926253,
34860,"West Blvd & Airport Dr",,35.204385,-80.926006,
34870,"West Blvd & Horseshoe Ln",,35.198140,-80.931081,
34880,"West Blvd & Horseshoe Ln",,35.198030,-80.931051,
34940,"Westinghouse Blvd @ 1200",,35.119776,-80.932510,
34960,"Westinghouse Blvd & Cordage St",,35.122266,-80.933880,
34970,"Westinghouse Blvd & South Commerce Blvd",,35.124947,-80.935342,
34980,"Westinghouse Blvd & Brookford St",,35.125475,-80.935833,
34985,"Westinghouse Bv & S Tryon St",,35.130255,-80.944472,
34990,"Westinghouse Blvd & Tryon St",,35.129262,-80.940308,
35000,"Westinghouse Blvd & Tryon St",,35.129351,-80.939440,
35050,"Wheatley Ave & Bunche Dr",,35.194422,-80.804558,
35060,"Wheatley Ave & Bunche Dr",,35.194259,-80.803681,
35070,"Wheatley Ave & Ellington St",,35.194075,-80.802462,
35080,"Wheatley Ave & Ellington St",,35.194186,-80.802698,
35170,"Wilkinson Blvd & Remount Rd",,35.223984,-80.884354,
35180,"Wilkinson Blvd & Ashley Rd",,35.224522,-80.893754,
35210,"Wilkinson Blvd & Donald Ross Rd",,35.224378,-80.896171,
35230,"Wilkinson Blvd & Old Steele Creek Rd",,35.224675,-80.899166,
35250,"Wilkinson Blvd & Midland Ave",,35.224947,-80.904943,
35260,"Wilkinson Blvd & Midland Ave",,35.225102,-80.904917,
35280,"Wilkinson Blvd & Morris Field Dr",,35.226444,-80.910532,
35290,"Wilkinson Blvd & Morris Field Dr",,35.225963,-80.909148,
35300,"Wilkinson Blvd & Alleghany St",,35.227873,-80.913911,
35310,"Wilkinson Blvd & Boyer St",,35.232551,-80.925771,
35320,"Wilkinson Blvd & Harlee Ave",,35.233754,-80.932667,
35440,"Woodland Dr & Commonwealth Ave",,35.208034,-80.789876,
35450,"Woodland Dr & Oakmont Ave",,35.208378,-80.788002,
35460,"Woodland Dr @ 1310",,35.208434,-80.787581,
35470,"Woodland Dr & Eastway Dr",,35.208083,-80.784352,
35480,"Woodland Dr & Eastway Dr",,35.208075,-80.784134,
35550,"Woodland Dr & Commonwealth Ave",,35.208053,-80.789528,
35570,"Woodlawn Rd & Nations Crossing Rd",,35.179186,-80.884195,
35580,"Woodlawn Rd & Chastain Ave",,35.178317,-80.880885,
35590,"Woodlawn Rd & Nations Crossing Rd",,35.178920,-80.882794,
35750,"Woodlawn Rd & Longwood Dr",,35.172456,-80.857525,
35770,"Woodlawn Rd & Castlewood Rd",,35.172518,-80.857212,
35780,"Woodlawn Rd @ 1315",,35.172273,-80.853318,
35790,"Woodlawn Rd & Drexmore Ave",,35.172063,-80.852124,
35800,"Woodlawn Rd & Parktowne Village Dr",,35.172223,-80.848868,
35820,"Woodlawn Rd & Park Rd",,35.172021,-80.850567,
35830,"Woodlawn Rd & Park Rd",,35.172336,-80.849316,
35840,"Woodlawn Rd & Montford Dr",,35.171527,-80.846199,
35845,"Woodlawn Rd & Montford Dr",,35.171892,-80.846386,
35860,"Woodlawn Rd & Selwyn Ave",,35.171186,-80.842131,
35951,"Airport Cargo Terminal",,35.211534,-80.938306,
36090,"Yuma St & Cinderella Rd",,35.265728,-80.792088,
36100,"Yuma St & Gondola Ave",,35.266423,-80.791394,
36110,"Yuma St & Argyle Dr West",,35.268089,-80.791890,
36120,"Yuma St & Hidden Valley Rd",,35.270551,-80.792658,
36140,"Transit Center- Bay A",,35.225052,-80.840639,
36275,"Concord Mills Mall",,35.369567,-80.725632,
36480,"Monroe Rd & Hwy 51",,35.120319,-80.727963,
36820,"Norris Ave & Grimes St",,35.253501,-80.821453,
36890,"Statesville Rd @ NorthPoint Presbyterian",,35.437145,-80.865172,
36900,"Eastway Dr @ Eastway Shopping Center",,35.210887,-80.782291,
36970,"South Blvd @ 9440 (Discount Tire)",,35.108429,-80.881832,
36980,"South Blvd @ 9716 (Texaco)",,35.105625,-80.881021,
37050,"Carolina Place Mall",,35.079783,-80.877704,
37055,"Carolina Place Pkwy & Pineville-Matthews Rd",,35.084683,-80.880046,
37060,"Pineville-Matthews Rd & Polk St",,35.085197,-80.884890,
37070,"Polk St & Pineville-Matthews Rd",,35.086995,-80.886636,
37080,"Polk St @ 400",,35.088927,-80.886310,
37090,"Polk St & Morrow Ave",,35.092015,-80.884924,
37100,"Pineville Rd & Industrial Dr",,35.094951,-80.883618,
37120,"South Blvd & Longleaf Dr",,35.109297,-80.881865,
37170,"Trade St & Matthews Station St",,35.117482,-80.720893,
37176,"Trade St & Park Center Dr",,35.119633,-80.718749,
37180,"Trade St & Matthews Township Pkwy",,35.121085,-80.717611,
37190,"Beatties Ford Rd & Hamilton Cir",,35.300893,-80.855556,
37200,"Independence Pointe Pkwy @ 10630",,35.121647,-80.707626,
37210,"Independence Pointe Pkwy & Matthews-Mint Hill Rd",,35.118694,-80.706389,
37220,"Matthews-Mint Hill Rd & Crestdale Rd",,35.117880,-80.708464,
37230,"Matthews-Mint Hill Rd @ Presbyterian Hospital",,35.117712,-80.712830,
37235,"Trade St & Park Center Dr",,35.119662,-80.718893,
37240,"Trade St & Charles St",,35.117367,-80.721238,
37241,"Tuckaseegee Rd & Cheshire Av",,35.246946,-80.902505,
37250,"Matthews-Mint Hill Rd @ 701 (Conbraco)",,35.117831,-80.710669,
37270,"Alleghany St & Ashley Rd",,35.238405,-80.895551,
37280,"Ashley Rd & Scott Futrell Dr",,35.243789,-80.896732,
37310,"Alleghany St @ 1203",,35.237986,-80.888393,
37320,"Alleghany St & Freedom Dr",,35.239038,-80.886840,
37380,"College St & 2nd St",,35.223660,-80.845635,
37410,"Church St & 9th St",,35.232342,-80.838232,
37412,"Tryon St & Stonewall St",,35.223568,-80.848494,
37460,"Monroe Rd & Sardis Rd North",,35.137925,-80.738623,
37465,"Monroe Rd & Sardis Rd North (Eckerd Drugs)",,35.138026,-80.738462,
37480,"John St & Ames Rd",,35.117258,-80.724493,
37490,"Monroe Rd @ 10600 (Animal Clinic)",,35.128806,-80.732522,
37510,"Monroe Rd @ Drake Apts",,35.131336,-80.735088,
37520,"Monroe Rd & Galleria Blvd",,35.134929,-80.737071,
37530,"Independence Blvd & Idlewild Rd",,35.184940,-80.757756,
37690,"Rea Rd & Macandrew Dr",,35.100024,-80.809107,
37700,"Rea Rd & Carmel Estates Rd",,35.096782,-80.809874,
37720,"Rea Rd & Sundancer Ln",,35.089348,-80.811599,
37760,"Rea Rd & Bevington Pl",,35.078376,-80.816755,
37762,"Rea Rd & Piper Glen Dr",,35.067104,-80.818015,
37764,"Rea Rd & Old Course Dr",,35.071051,-80.819423,
37770,"Rea Rd @ Calvary Park & Ride",,35.081807,-80.814324,
37790,"Carmel Rd & Sharon View Rd",,35.139262,-80.802802,
37800,"Carmel Rd & Town & Country Dr",,35.135322,-80.806087,
37810,"Carmel Rd & Camilla Dr",,35.133596,-80.807377,
38060,"Randolph Rd & Sardis Rd",,35.160485,-80.787336,
38070,"Carmel Rd & Wandering Way Dr",,35.144227,-80.801423,
38080,"Carmel Rd & Carmel Park Ln",,35.146788,-80.801784,
38090,"Fairview Rd & Fairview Oaks Dr",,35.151312,-80.798291,
38091,"Fairview & Carmel Rd",,35.149033,-80.801926,
38092,"Fairview & Carmel Rd",,35.148169,-80.803585,
38100,"Fairview Rd & Providence Rd",,35.153808,-80.795612,
38106,"Sardis Rd & Providence Rd",,35.156324,-80.793489,
38150,"Sardis Rd & Coventry Row Ct",,35.156942,-80.792432,
38200,"Randolph Rd & Randolph Oaks Ct",,35.171536,-80.796598,
38205,"Idlewild Rd & Piney Grove Rd",,35.184030,-80.727956,
38210,"Idlewild Rd & Piney Grove Rd",,35.183922,-80.728180,
38220,"Idlewild Rd & Dion Ave",,35.184790,-80.748792,
38230,"Idlewild Rd & Cedarwild Rd",,35.185752,-80.747038,
38240,"Idlewild Rd & Boston Ave",,35.185920,-80.741723,
38250,"Idlewild Rd & Ivydale Dr",,35.185673,-80.739224,
38260,"Idlewild Rd & Lynfield Dr",,35.186262,-80.737050,
38270,"Idlewild Rd & Highbrook Dr",,35.187057,-80.736056,
38280,"Idlewild Rd & WT Harris Blvd",,35.186137,-80.730812,
38290,"Idlewild Rd & Cresthill Dr",,35.179758,-80.724732,
38300,"Idlewild Rd & Lynworth Pl",,35.182755,-80.727210,
38330,"Idlewild Rd & Cedars East Ct",,35.183776,-80.751100,
38350,"Pence Rd & Viola Dr",,35.215564,-80.690138,
38360,"Harrisburg Rd & Pence Rd",,35.213341,-80.687203,
38370,"Albemarle Rd & Circumferential Rd",,35.211634,-80.692371,
38380,"Albemarle Rd & Olde Savannah Rd",,35.210492,-80.699938,
38390,"Albemarle Rd & Lynton Blvd",,35.208144,-80.708594,
38400,"Albemarle Rd & Lake Forest Rd East",,35.205300,-80.717893,
38410,"Pence Rd & Holly Hill Rd",,35.222871,-80.705793,
38420,"4th St & Poplar St",,35.227629,-80.845557,
38460,"West Blvd & Beech Nut Rd",,35.215066,-80.886867,
38570,"Davidson St & 7th St",,35.224877,-80.835227,
38580,"Davidson St & 5th St",,35.223969,-80.836437,
38590,"The Plaza & Starhaven Dr",,35.248027,-80.751791,
38610,"Hebron St & Nations Ford Rd",,35.129587,-80.893910,
38620,"Central Ave & Eastway Dr",,35.215623,-80.779910,
38640,"Oakland St & Main Ave",,35.264641,-81.179888,
39230,"LaSalle St & Madrid St",,35.262200,-80.850511,
39240,"LaSalle St & Kennesaw Dr",,35.261387,-80.846320,
39250,"LaSalle St & Newcastle St",,35.260926,-80.843170,
39260,"Norris Ave & Wells St",,35.257522,-80.829242,
39370,"Oaklawn Ave & Burton St",,35.247716,-80.843916,
39460,"Graham St & Dalton Ave",,35.240392,-80.835144,
39550,"Davidson St & 34th St",,35.246087,-80.807308,
39730,"LaSalle St & Brownstone St",,35.261014,-80.843229,
39740,"Abbey Plaza",,35.252681,-81.029325,
39800,"Rozzelles Ferry Rd & Hough St",,35.278183,-80.898438,
39870,"Rozzelles Ferry Rd & Hough St",,35.278168,-80.898505,
40000,"New Renaissance Way & Burnette Ave",,35.209172,-80.920613,
40002,"Burnette Av & Triumph  Dr",,35.209290,-80.919463,
40003,"Nobles Ave & Innovation Dr",,35.210161,-80.920359,
40004,"Burnette Av & Triumph Dr",,35.209253,-80.919385,
40005,"New Renaissance Way & West Blvd",,35.207884,-80.919993,
40006,"New Renaissance Way & West Blvd",,35.207722,-80.919707,
40010,"Graham St & Cannon Ave",,35.280618,-80.805732,
40015,"Graham St & Oneida Rd",,35.281911,-80.804831,
40016,"Graham St & Oneida Rd",,35.282130,-80.804462,
40020,"Graham St & Allen Rd South",,35.283759,-80.803161,
40030,"Graham St & Allen Rd South",,35.283856,-80.803307,
40040,"Graham St & Sugar Creek Rd",,35.291268,-80.797193,
40060,"Sugar Creek Rd & Rumple Rd",,35.294308,-80.797328,
40080,"Mallard Creek Rd & Mallard Square Ln",,35.302304,-80.799975,
40090,"Mallard Creek Rd & Sugar Creek Rd",,35.301787,-80.800540,
40100,"Mallard Creek Rd & Avalon Oaks Dr",,35.304818,-80.797758,
40110,"Mallard Creek Rd & Nevin Rd",,35.304599,-80.798098,
40120,"Mallard Creek Rd & Rockwell Church Rd",,35.306826,-80.796149,
40130,"Mallard Creek Rd & Mallard Park Dr",,35.307048,-80.795872,
40140,"Mallard Creek Rd & Mallard Forest Dr",,35.309233,-80.793969,
40150,"Mallard Creek Rd & Mallard Forest Dr",,35.308817,-80.794406,
40155,"Mallard Creek Rd & Penninger Cir",,35.312762,-80.788180,
40156,"Mallard Creek Rd & Penninger Cir",,35.312548,-80.788544,
40157,"Sugar Creek Rd & Maple St",,35.297640,-80.799416,
40158,"Sugar Creek Rd & Maple St",,35.297564,-80.799548,
40159,"Matthews Township Pkwy & Sam Newell Rd",,35.121801,-80.716137,
40160,"Mallard Creek Rd & Baucom Rd",,35.315174,-80.782470,
40170,"Mallard Creek Rd & Krystle June Blvd",,35.314612,-80.783497,
40180,"Mallard Creek Rd & WT Harris Blvd",,35.317844,-80.779377,
40190,"Mallard Creek Rd & Old Mallard Creek Rd",,35.317893,-80.779707,
40200,"Main & Hickory",,35.479458,-80.856950,
40210,"Main & Hickory",,35.479529,-80.856951,
40220,"Main St & Railroad St",,35.482595,-80.858281,
40230,"Main St & Railroad St",,35.482640,-80.858208,
40240,"Main St & Legion St",,35.487443,-80.858446,
40250,"Main St & Legion St",,35.487366,-80.858397,
40260,"Main St & McCall St",,35.489786,-80.857945,
40270,"Main St & Pecan St",,35.489781,-80.857895,
40280,"Main St & Cornelius St",,35.491564,-80.857596,
40290,"Main St & Cornelius St",,35.491861,-80.857418,
40300,"Main St & Catawba Ave",,35.495862,-80.852940,
40320,"Main St & Concord Rd",,35.498745,-80.848728,
40330,"Main St & Concord Rd",,35.498780,-80.848573,
40340,"Main St & Griffith St",,35.501117,-80.847617,
40350,"Sam Furr Rd & Birkdale Commons Pkwy",,35.443477,-80.880379,
40355,"Sam Furr Rd & Birkdale Commons Pkwy",,35.443272,-80.880450,
40360,"Sam Furr Rd & Sedgebrook Ln",,35.443761,-80.885635,
40370,"Sam Furr Rd & Sedgebrook Ln",,35.443970,-80.885770,
40372,"Kenton Dr & Waterview Dr",,35.447426,-80.891083,
40373,"Kenton Dr & Waterview Dr",,35.447608,-80.891316,
40440,"Catawba Ave & Harborside Dr",,35.463686,-80.888847,
40450,"Catawba Ave & Harborside Dr",,35.465429,-80.888681,
40530,"Catawba Ave & Torrence Chapel Rd",,35.482999,-80.878678,
40590,"Jetton St & Park Dr",,35.498262,-80.856731,
40630,"Hambright Rd & Cimmaron Rd",,35.384739,-80.882391,
40631,"Hambright Rd & Frontier Rd",,35.384706,-80.882886,
40681,"Sam Furr Rd & Northcross Dr",,35.442671,-80.873332,
40682,"Sam Furr Rd & Northcross Dr",,35.442844,-80.873316,
40687,"Catawba Ave & Kings Point Dr",,35.460498,-80.888772,
40710,"Hambright Rd & Comanche Rd",,35.382243,-80.877795,
40720,"McCoy Rd & Stratton Farm Rd",,35.395177,-80.874523,
40730,"McCoy Rd & Stratton Farm Rd",,35.394813,-80.875109,
40743,"Statesville Rd & Shiv Dr",,35.416283,-80.856945,
40745,"Statesville Rd & Huntersville Commons Dr",,35.416139,-80.856731,
40751,"Statesville Rd & Northdowns Ln",,35.431208,-80.863952,
40752,"Statesville Rd & Northdowns Ln",,35.430955,-80.863745,
40753,"Statesville Rd @ Deer Hill Apts",,35.418856,-80.857834,
40754,"Statesville Rd @ Deer Hill Apts",,35.418617,-80.857507,
40755,"Statesville Rd & Bankside Dr",,35.427608,-80.862147,
40756,"Statesville Rd & Bankside Dr",,35.427571,-80.862203,
40760,"2nd Baxter Xing & Springmaid Ave",,35.028754,-80.968528,
40770,"Cinema Dr @ Regal Manchester",,34.944470,-80.977699,
40775,"White Street Park and Ride",,34.927049,-81.026936,
40937,"Barclay Downs Dr & Bulfinch Rd",,35.151762,-80.836469,
41130,"Matthews Township Pkwy & Paces Ave",,35.121832,-80.713185,
41135,"Matthews Township Pkwy & Paces Ave",,35.122019,-80.713181,
41251,"Gamble St & Walnut St",,35.498606,-80.853571,
41252,"Davidson Gateway Dr & Jetton St",,35.499015,-80.860463,
41256,"Griffith St & Sloan St",,35.502798,-80.852886,
41258,"Main St @ Davidson Town Hall",,35.497738,-80.849569,
41259,"Main St & Griffith St",,35.501414,-80.847618,
41261,"Washam Potts & Tryon",,35.474993,-80.855327,
41262,"Washam Potts & Barnette",,35.474937,-80.855199,
41263,"Washam Potts & Coachman's Trace",,35.470674,-80.859712,
41264,"Washam Potts & Coachman's  Trace",,35.470632,-80.859620,
41265,"Statesville Rd & Bailey Rd",,35.457294,-80.868134,
41266,"Statesville Rd & Bailey Rd",,35.457715,-80.868529,
41267,"Statesville Rd & Caldwell Commons Cir",,35.451009,-80.867073,
41268,"Statesville Rd & Caldwell Commons Cir",,35.450807,-80.866961,
41269,"Statesville Rd & Caldwell Creek Dr",,35.445893,-80.866443,
41271,"Statesville Rd & Northcross Center Ct",,35.445896,-80.866153,
41292,"Old Statesville Rd @ Huntersville Municipal Bldg",,35.410122,-80.842701,
41293,"Old Statesville Rd & Mullen St",,35.407112,-80.842147,
41294,"Old Statesville Rd & Mullen St",,35.408206,-80.842226,
41295,"Old Statesville Rd & Mt Holly Huntersville Rd",,35.404591,-80.841110,
41296,"Old Statesville Rd & Mt Holly Huntersville Rd",,35.405366,-80.841498,
41297,"Old Statesville Rd @ Monteith Place",,35.399339,-80.838574,
41298,"Old Statesville Rd @ Monteith Place",,35.399374,-80.838437,
41420,"Gilead Rd & Marguerite Ln",,35.410428,-80.851472,
41425,"Gilead Rd & Commerce Centre Dr",,35.410566,-80.852816,
41428,"Julian Clark Av & Lindley Dr",,35.398170,-80.866798,
41430,"Julian Clark Av & Reese Blvd W",,35.397534,-80.864556,
41431,"Boren St & Reese Blvd W",,35.400818,-80.864367,
41433,"Boren St @ EarthFare",,35.404372,-80.866139,
41434,"Boren St & Kincey Av",,35.404367,-80.865965,
41436,"Gilead Rd @ Torrence Village",,35.406262,-80.864849,
41438,"Gilead Rd @ Huntersville Presbyterian Hospital",,35.407685,-80.861080,
41439,"Gilead Rd & Reese Blvd",,35.407207,-80.863027,
41440,"Gilead Rd & Hillcrest Dr",,35.410662,-80.846432,
41450,"Gilead Rd & Hillcrest Dr",,35.410738,-80.845947,
41460,"Eastway Dr & Biscayne Dr",,35.210495,-80.782172,
41480,"Eastway Dr & Central Ave",,35.214430,-80.780701,
41490,"Eastway Dr & Central Ave",,35.214487,-80.780930,
41500,"Griffith St & Main St",,35.502088,-80.848105,
41921,"Old Statesville Rd @ Huntersville Municipal Bldg",,35.410076,-80.842872,
41959,"Main St @ Davidson Town Hall",,35.497693,-80.849598,
42135,"Providence Rd & Huntington Park Dr",,35.165176,-80.802706,
42185,"Providence Rd & Sardis Ln",,35.137788,-80.783787,
42190,"Beatties Ford Rd & Hamilton Cir",,35.300637,-80.855443,
42245,"Providence Rd @ Heatherwood Apts",,35.129329,-80.781257,
42250,"Providence Rd @ 6020",,35.129866,-80.781507,
42260,"Fairview Rd & Barclay Downs Dr",,35.150174,-80.835008,
42280,"3rd St & Queens Rd",,35.210982,-80.827983,
42284,"Providence Rd & Caswell Rd",,35.208853,-80.825173,
42290,"Graham St & Armour Dr",,35.242290,-80.833858,
42305,"Sharon Amity Rd & Lynnville Ave",,35.191964,-80.770059,
42325,"Monroe Rd & Mandarin Blvd",,35.190126,-80.773551,
42340,"Monroe Rd & Summey Ave",,35.190404,-80.774534,
42350,"Tryon St & Old Concord Rd",,35.261205,-80.774590,
42355,"Matthews Park & Ride",,35.134297,-80.715534,
42357,"Sam Newell Rd & Matthews Commons Dr",,35.132559,-80.718706,
42358,"Sam Newell Rd & Matthews Commons Dr",,35.131724,-80.719234,
42360,"Carmel Rd & Crooked Oak Ln",,35.141398,-80.801705,
42365,"Whitehall Commons Dr @ Lowe's",,35.144316,-80.931241,
42375,"Crownpoint Executive Dr @ 2331",,35.142352,-80.724044,
42500,"Trinity Rd & Beatties Ford Rd",,35.320168,-80.864550,
42505,"Trinity Rd & Beatties Ford Rd",,35.320191,-80.864661,
42510,"Trinity Rd @ Cemetery",,35.321026,-80.862537,
42515,"Trinity Rd @ 9115",,35.321109,-80.862502,
42605,"Trinity Rd & Clairemore Pl",,35.325030,-80.858575,
42606,"Trinity Rd & Evanshire Dr",,35.323374,-80.858472,
42608,"Trinity Rd & Feldbank Dr",,35.327052,-80.858472,
42615,"Trinity Rd & Evanshire Dr",,35.322176,-80.859737,
42620,"Beatties Ford Rd & Hyde Park Dr",,35.316957,-80.864630,
42625,"Beatties Ford Rd & Hyde Park Dr",,35.316845,-80.864748,
42630,"Beatties Ford Rd @ 5835 (Kids Workshop)",,35.313874,-80.863914,
42635,"Beatties Ford Rd @ 5901 (Kids Workshop)",,35.313978,-80.864056,
42640,"Beatties Ford Rd & McIntyre Ave",,35.312178,-80.863569,
42645,"Beatties Ford Rd & McIntyre Ave",,35.312134,-80.863578,
42650,"Beatties Ford Rd & Pauline Ln",,35.308324,-80.860792,
42655,"Beatties Ford Rd & Sunset Rd",,35.306042,-80.859232,
42660,"Beatties Ford Rd & Montgomery Gardens Dr",,35.306172,-80.859113,
42930,"LaSalle St & Beatties Ford Rd",,35.262896,-80.853715,
42935,"Marvin Rd & Wendover Rd",,35.190909,-80.798692,
42950,"LaSalle St & Custer St",,35.262731,-80.853169,
43140,"WT Harris Blvd & Albemarle Rd",,35.199642,-80.726225,
43150,"WT Harris Blvd & Baraway Dr",,35.196965,-80.726515,
43160,"WT Harris Blvd & Allister Dr",,35.192626,-80.726330,
43170,"WT Harris Blvd & Greywood Dr",,35.190523,-80.727564,
43175,"WT Harris Blvd & Denning Pl",,35.190752,-80.727321,
43180,"WT Harris Blvd & Meadowdale Ln",,35.187464,-80.729491,
43185,"WT Harris Blvd & Meadowdale Ln",,35.187015,-80.729419,
43330,"Sharon Amity Rd & Monroe Rd",,35.188794,-80.773127,
43340,"Monroe Rd & Sharon Amity Rd",,35.188477,-80.770643,
43420,"East Blvd & Camden Rd",,35.212255,-80.858295,
43425,"West Blvd & Camden Rd",,35.212740,-80.859320,
43435,"West Blvd & Tryon St",,35.214210,-80.862449,
43525,"Wendover Rd & Latrobe Dr",,35.192177,-80.795634,
43530,"Wendover Rd & Latrobe Dr",,35.192239,-80.795772,
43720,"LaSalle St & Jennings St",,35.261548,-80.847117,
43725,"LaSalle St & Augusta St",,35.262667,-80.852132,
43860,"Craighead Rd & Glory St",,35.259949,-80.802097,
43885,"Craighead Rd & Tiffany Rose Pl",,35.257113,-80.802118,
43887,"Craighead Rd & Tryon St",,35.255775,-80.801238,
43888,"Craighead Rd & Tryon St",,35.255688,-80.801030,
43890,"Craighead Rd & Tiffany Rose Pl",,35.257123,-80.801955,
43925,"LaSalle St & Beatties Ford Rd",,35.262752,-80.856104,
43945,"Marvin Rd & Villa Ct",,35.193149,-80.799842,
44000,"Stateview Blvd @ Wells Fargo",,35.094695,-80.931652,
44005,"Hoskins Rd & Cricketeer Dr",,35.276068,-80.866532,
44010,"Hoskins Rd & Maple Grove Dr",,35.275518,-80.863014,
44020,"Tryon St & 11th St",,35.232282,-80.835788,
44030,"West Blvd & Worthington Ave",,35.216214,-80.867404,
44035,"Beatties Ford Rd & Dundeen St",,35.255295,-80.855854,
44045,"Trade St & Church St",,35.228288,-80.844404,
44059,"Lawyers Rd & Lawyers Glen Dr",,35.177462,-80.664066,
44060,"Lawyers Rd & Truelight Church Rd",,35.178030,-80.666704,
44065,"Wilkinson Blvd & Mulberry Church Rd",,35.229345,-80.917297,
44080,"Wilkinson Blvd & Ashley Rd",,35.224253,-80.891437,
44095,"Johnston Rd & Porterfield Rd",,35.078759,-80.845714,
44115,"Rea Rd & Sundancer Ln",,35.089414,-80.811335,
44117,"Rea Rd & Five Knolls Dr",,35.092918,-80.810514,
44118,"Rea Rd & Five Knolls Dr",,35.092863,-80.810745,
44120,"Westinghouse Blvd & Cordage St",,35.121581,-80.933723,
44125,"Barrington Dr & Milton Rd",,35.238034,-80.742891,
44130,"Park Rd & Magnolia Ave",,35.202788,-80.852509,
44135,"Park Rd & Magnolia Ave",,35.202523,-80.852402,
44140,"Nations Ford Rd & Ramblelake Rd",,35.130215,-80.892156,
44145,"Nations Ford Rd & Old Hebron Rd",,35.131029,-80.891784,
44165,"Nations Ford Rd & Arrowood Rd",,35.134072,-80.891874,
44170,"Nations Ford Rd & Arrowood Rd",,35.134008,-80.891752,
44175,"Whitehall Commons Dr @ Lowe's",,35.144253,-80.931380,
44180,"Westinghouse Blvd & Granite St",,35.117342,-80.929506,
44185,"Westinghouse Blvd & Granite St",,35.117063,-80.929288,
44225,"Research Dr & David Taylor",,35.320000,-80.759804,
44226,"Research Dr & David Taylor",,35.320832,-80.760566,
44231,"David Taylor Dr & Governor Hunt Dr",,35.328010,-80.761827,
44235,"David Taylor Dr @ 9711 (Clarke America)",,35.325699,-80.755981,
44236,"David Taylor @ Duke Energy",,35.325516,-80.755636,
44245,"Medical Plaza Dr & WT Harris Blvd",,35.318467,-80.775856,
44246,"Medical Plaza Dr & WT Harris Blvd",,35.318705,-80.775942,
44275,"Monroe Crossing Mall",,35.004878,-80.558109,
44280,"Union Towne Center",,35.067420,-80.639319,
44285,"Hoskins Rd & Maple Grove Dr",,35.275532,-80.863544,
44290,"David Taylor Dr & Andrew Carnegie Blvd",,35.322015,-80.755895,
44291,"David Taylor Dr & Andrew Carnegie Blvd",,35.322080,-80.755763,
44302,"Ballantyne Commons Pkwy & Ballantyne Medical Pl",,35.056106,-80.855451,
44305,"Ballentyne Corporate Pl & Harney Dr",,35.058826,-80.857389,
44365,"Hoskins Rd & Tuckers Glen Ln",,35.269916,-80.876095,
44370,"Hoskins Rd & Tuckers Glen Ln",,35.269446,-80.876299,
44390,"Old Mt Holly Rd & Windy Valley Dr",,35.279982,-80.901827,
44415,"Whitehall Commons @ Wal-Mart",,35.146389,-80.936123,
44481,"Tuckaseegee Rd & State St",,35.239055,-80.875655,
44482,"Tuckaseegee Rd & Rush Ave",,35.241507,-80.876805,
44483,"Tuckaseegee Rd & Clay Ave",,35.241375,-80.876885,
44484,"Tuckaseegee Rd & State Ave",,35.238460,-80.875558,
44545,"Ashley Rd @ 2401",,35.231033,-80.893947,
44570,"Greenland Ave & Weyland Ave",,35.226252,-80.889270,
44590,"Airport Dr @ across 5111",,35.211993,-80.928355,
44605,"Greenland Ave & Weyland Ave",,35.226319,-80.887760,
44610,"Greenland Ave & Weyland Ave",,35.226178,-80.887139,
44620,"Airport Dr @ 5213",,35.212041,-80.928279,
44630,"Kings Dr & Baxter St",,35.211578,-80.834992,
44680,"Burkland Dr & Bunche Dr",,35.195302,-80.802673,
44885,"Tryon St @ 8951",,35.136495,-80.937710,
44895,"Tryon St & Sandy Porter Rd",,35.134117,-80.939688,
44905,"Tryon St & Bethany Brook Ln",,35.137874,-80.936555,
45000,"Briar Creek Rd & Commonwealth Ave",,35.210158,-80.794195,
45010,"3rd St & Tryon St",,35.225766,-80.845539,
45011,"3rd St & College St",,35.224742,-80.844335,
45021,"Belmont Ave & Seigle Ave",,35.227160,-80.820151,
45025,"Commonwealth Ave & Waterman Ave",,35.209200,-80.793709,
45037,"Transit Center- Bay P",,35.224229,-80.841325,
45038,"Transit Center- Bay Q",,35.224161,-80.841235,
45039,"Transit Center- Bay O",,35.224336,-80.841179,
45040,"Transit Center- Bay R",,35.224289,-80.841080,
45041,"Transit Center- Bay N",,35.224473,-80.840997,
45042,"Transit Center- Bay S",,35.224405,-80.840905,
45043,"Transit Center- Bay M",,35.224605,-80.840801,
45044,"Transit Center- Bay T",,35.224541,-80.840726,
45045,"Transit Center- Bay L",,35.224725,-80.840632,
45046,"Transit Center- Bay U",,35.224665,-80.840532,
45047,"Transit Center- Bay G",,35.224307,-80.841489,
45048,"Transit Center- Bay F",,35.224367,-80.841559,
45049,"Transit Center- Bay H",,35.224411,-80.841299,
45052,"Transit Center- Bay E",,35.224483,-80.841380,
45054,"Transit Center- Bay D",,35.224604,-80.841151,
45055,"Transit Center- Bay J",,35.224644,-80.840896,
45056,"Transit Center- Bay C",,35.224718,-80.840955,
45058,"Transit Center- Bay B",,35.224824,-80.840787,
45059,"Transit Center- Bay I",,35.224537,-80.841086,
45063,"Norris Ave & Wells St",,35.257623,-80.829333,
45070,"University City Blvd & Mark Twain Rd",,35.300390,-80.733324,
45071,"Barrington Dr & Rosecran Dr",,35.246556,-80.745415,
45074,"Eastway Dr & The Plaza",,35.248689,-80.781004,
45075,"Transit Center- 4th & Brevard",,35.224041,-80.841340,
45080,"Bellhaven Blvd & Rozwood Dr",,35.304611,-80.937681,
45081,"McClure Cir & Bellhaven Blvd",,35.304009,-80.935990,
45082,"Brookshire Blvd & Hoskins Rd",,35.267183,-80.882044,
45090,"Tryon St & Yorkmont Rd",,35.178120,-80.891893,
45091,"Brookshire Blvd & Hoskins Rd",,35.267140,-80.882311,
45097,"Tryon St @ UNCC Research Center",,35.313115,-80.742569,
45100,"Tryon St & Kingman Dr",,35.175206,-80.895112,
45102,"Transit Center- Bay V",,35.224069,-80.840809,
45103,"Eastland Transit Center- Bay E",,35.207818,-80.753629,
45104,"Eastland Transit Center- Bay A",,35.208067,-80.753189,
45106,"Eastland Transit Center- Bay B",,35.208231,-80.753377,
45107,"Eastland Transit Center- Bay C",,35.208338,-80.753560,
45110,"Tryon St & Southampton Rd",,35.173258,-80.898765,
45112,"Beatties Ford Rd & Rosa Parks Pl (Bay C)",,35.273919,-80.854606,
45114,"Westinghouse Blvd & D Ducks Ln",,35.131208,-80.947450,
45118,"Grier Rd & WT Harris Blvd",,35.266550,-80.730911,
45119,"Monroe Rd & Hwy 51",,35.123807,-80.729107,
45120,"Tryon St & Queen Anne Rd",,35.171416,-80.901969,
45126,"Catawba Ave & Mulberry St",,35.482438,-80.861362,
45127,"Catawba Ave & Meridian St",,35.482383,-80.861534,
45130,"Tyvola Rd & Tyvola Centre Dr",,35.164367,-80.903604,
45131,"Depot St & Jackson St",,35.500809,-80.850258,
45132,"Trinity Rd & Larkhull Dr",,35.328678,-80.858443,
45133,"Trinity Rd & Feldbank Dr",,35.327979,-80.858575,
45136,"Wendover Rd & Beal St",,35.190947,-80.796685,
45137,"Wendover Rd & Beal St",,35.190545,-80.797476,
45138,"IBM Dr & Old Mallard Creek Rd",,35.316531,-80.776582,
45140,"Tyvola Rd & Free Throw Ln",,35.162654,-80.900886,
45142,"IBM Dr & Old Mallard Creek Rd",,35.316774,-80.776613,
45150,"Nations Ford Rd & Tyvola Glen Cir",,35.165747,-80.893724,
45155,"Pence Rd & Viola Dr",,35.215908,-80.690752,
45160,"WT Harris Blvd & Albemarle Rd",,35.204587,-80.725880,
45165,"Pence Rd @ 7901",,35.221024,-80.700379,
45170,"WT Harris Blvd & Wallace Ave",,35.208601,-80.725945,
45175,"Pence Rd & Parkers Crossing Dr",,35.224771,-80.711016,
45180,"WT Harris Blvd & Delta Crossing Ln",,35.214146,-80.724633,
45185,"Pence Rd & Pence Grove Rd",,35.225666,-80.715335,
45190,"WT Harris Blvd & Delta Landing Rd",,35.217051,-80.722283,
45195,"Pence Rd & Highland Ave",,35.225753,-80.720042,
45200,"Sharon Lakes Rd & Oak Meadow Ct",,35.125191,-80.871177,
45205,"WT Harris Blvd & Trysting Rd",,35.218967,-80.722936,
45210,"WT Harris Blvd & Trysting Rd",,35.218969,-80.722797,
45215,"WT Harris Blvd & Delta Landing Rd",,35.216643,-80.722567,
45220,"Hickory Grove Rd & WT Harris Blvd",,35.223577,-80.723888,
45221,"Albemarle Rd & Farm Pond Ln",,35.202844,-80.737820,
45225,"WT Harris Blvd & Delta Crossing Ln",,35.213607,-80.725401,
45230,"Pence Rd & Hickory Trace Dr",,35.225643,-80.720104,
45235,"WT Harris Blvd & Wallace Ave",,35.208549,-80.726105,
45240,"Pence Rd & Montezuma Trl",,35.225488,-80.715312,
45242,"Pence Rd & Parkers Crossing Dr",,35.224669,-80.710445,
45293,"Beatties Ford Rd & Sunset Rd",,35.304138,-80.857551,
45312,"Sam Drenan Rd & Randolph Rd",,35.198624,-80.810607,
45314,"Billingsley Rd & Cascade Cir",,35.190732,-80.803907,
45315,"IBM Dr & Hewitt Associates Dr",,35.307063,-80.776167,
45318,"Billingsley Rd @ 411",,35.190517,-80.805623,
45319,"Providence Rd & McKee Rd",,35.065859,-80.770159,
45320,"Albemarle Rd & Harrisburg Rd",,35.211762,-80.689279,
45321,"Providence Rd & Ballantyne Commons Pkwy",,35.065447,-80.770270,
45322,"Billingsley Rd & Randolph Rd",,35.190618,-80.809154,
45323,"Sam Drenan Rd & Randolph Rd",,35.198633,-80.810735,
45324,"Billingsley Rd & Jonquil St",,35.191626,-80.800586,
45325,"IBM Dr & Neal Rd",,35.303996,-80.772453,
45327,"Providence Rd & Alexa Rd",,35.070295,-80.773267,
45330,"Circumferential Rd & Trellis Pointe Blvd",,35.208413,-80.692617,
45332,"Westinghouse Blvd & Forsyth Park Dr",,35.132518,-80.954985,
45333,"Westinghouse & Forsyth Park Dr",,35.132432,-80.955152,
45335,"IBM Dr & Solectron Dr",,35.311976,-80.777538,
45337,"IBM Dr & Hewitt Associates Dr",,35.306674,-80.775716,
45342,"The Plaza & Duncan Ave",,35.234968,-80.805061,
45343,"The Plaza & Mason Cir",,35.235506,-80.804179,
45344,"Mallard Creek Rd & Hubbard Rd",,35.311844,-80.790400,
45346,"Mallard Creek Rd & Hubbard Rd",,35.311855,-80.790433,
45348,"Woodlawn Rd & Wallingford St",,35.179427,-80.884596,
45349,"Providence Rd & Berkeley Greene Dr",,35.068902,-80.772775,
45354,"Mallard Creek Park & Ride",,35.323821,-80.772774,
45356,"Claude Freeman Dr & Mallard Creek Church Rd",,35.336804,-80.758593,
45357,"IBM Dr & Neal Rd",,35.304368,-80.772746,
45358,"Rosa Parks Pl & Carrier Dr",,35.272871,-80.857354,
45359,"Providence Farm Rd @ Waverly Shopping Center",,35.056005,-80.768804,
45360,"Westinghouse Blvd & D Ducks Ln",,35.131160,-80.947666,
45363,"Northcross Park & Ride",,35.448334,-80.871575,
45367,"Cove Creek Dr & Eastbrook Rd",,35.261278,-80.746093,
45368,"Cove Creek Dr & Delham Dr",,35.263784,-80.740856,
45369,"Cove Creek Dr & Delham Dr",,35.263401,-80.741042,
45370,"Ben Craig Dr & Mallard Creek Rd",,35.321857,-80.773855,
45371,"Cove Creek Dr & Eastbrook Rd",,35.261070,-80.746222,
45372,"Hickory Grove Rd & Susan Dr",,35.224624,-80.722934,
45374,"Graham St & Princess St",,35.286990,-80.800792,
45375,"Graham St & Princess St",,35.286921,-80.800653,
45377,"Reames Rd & Bayview Pkwy",,35.340527,-80.858024,
45378,"Reames Rd & Perimeter Pkwy",,35.344775,-80.857519,
45380,"Technology Dr & Flat River Dr",,35.317322,-80.770514,
45381,"Reames Rd & Bayview Pkwy",,35.340477,-80.858079,
45382,"Reames Rd & Perimeter Pkwy",,35.344751,-80.857788,
45384,"Westinghouse Blvd @ 3550",,35.132774,-80.966660,
45385,"Westlake Dr @ 11025",,35.136763,-80.970397,
45386,"Westlake Dr @ 10601",,35.141186,-80.967031,
45387,"Westlake Dr @ 10415",,35.142442,-80.967853,
45388,"Westlake Dr @ 10301",,35.142315,-80.971229,
45398,"College St & Morehead St",,35.220292,-80.850974,
45399,"College St & Stonewall St",,35.222332,-80.847603,
45400,"Mallard Creek Rd & Mallard Hill Dr",,35.339295,-80.770498,
45403,"Whitehall Commons @ Wal-Mart",,35.146122,-80.936019,
45407,"Morehead St & Arty Ave",,35.225011,-80.877430,
45409,"Wilkinson Blvd & Remount Rd",,35.224082,-80.883709,
45410,"Mallard Creek Church Rd & David Taylor Dr",,35.340181,-80.765954,
45413,"Wilkinson Blvd & Alleghany St",,35.227618,-80.912732,
45415,"Wilkinson Blvd & Mulberry Church Rd",,35.229556,-80.917320,
45417,"Wilkinson Blvd & Boyer St",,35.232442,-80.924710,
45419,"Wilkinson Blvd & Harlee Ave",,35.234229,-80.934677,
45420,"Tryon St & Carson Blvd",,35.219274,-80.852853,
45422,"Claude Freeman Dr & David Taylor Dr",,35.331401,-80.760472,
45424,"David Taylor Dr & Claude Freeman Dr",,35.330228,-80.763122,
45426,"Milton Rd & Tipperary Pl",,35.241505,-80.749772,
45429,"Morehead St & Arty Ave",,35.224829,-80.877412,
45430,"Wendover Rd & Monroe Rd",,35.196156,-80.791933,
45431,"Eastway Dr & Woodland Dr",,35.207615,-80.783441,
45432,"Eastway Dr & Woodland Dr",,35.207443,-80.783789,
45433,"Wendover Rd & Monroe Rd",,35.196270,-80.791949,
45437,"Central Ave & Eastway Dr",,35.215597,-80.781520,
45440,"Providence Rd & Cedar Ln",,35.150873,-80.793048,
45441,"Mallard Creek Church & David Taylor",,35.338850,-80.763356,
45460,"Neal Rd & IBM Dr",,35.302567,-80.774168,
45461,"Neal Rd & Rumstone Ln",,35.296304,-80.778845,
45462,"Neal Rd & Rumstone Ln",,35.296270,-80.778727,
45470,"IBM Dr & Solectron Dr",,35.311999,-80.777666,
45471,"IBM Dr @ YMCA",,35.314910,-80.776831,
45480,"Tryon St & Township Rd",,35.131982,-80.940868,
45498,"Central Ave & 7th St",,35.220441,-80.828582,
45502,"Hoskins Rd & Gossett Av",,35.264958,-80.884884,
45531,"Providence Rd & Caswell Rd",,35.208690,-80.824868,
45599,"Freedom Dr & Weststone Dr",,35.255590,-80.907412,
45601,"Rea Rd @ St. Matthews Church Park & Ride",,35.056231,-80.812608,
45602,"Bellhaven Blvd & Bellhaven Cir",,35.319850,-80.951684,
45603,"Bellhaven Blvd & Mt Holly-Huntersville Rd",,35.320689,-80.952303,
45605,"Freedom Dr & Weststone Dr",,35.255885,-80.907710,
45606,"Catawba Ave & Bluff Point Rd",,35.453834,-80.888549,
45608,"Catawba Ave & Bluff Point Rd",,35.453734,-80.888314,
45609,"Catawba Ave & Westmoreland Rd",,35.460855,-80.888574,
45611,"Valleydale & Jordans Pond Ln",,35.293125,-80.930508,
45613,"Valleydale & Jordans Pond Ln",,35.293152,-80.930328,
45614,"Catawba Ave & Jetton Rd",,35.476531,-80.891325,
45615,"Grier Rd & Newell Hickory Grove Rd",,35.265262,-80.736223,
45620,"Grier Rd & Newell Hickory Grove Rd",,35.265107,-80.735922,
45640,"CPCC Northeast Campus",,35.264593,-80.730453,
45660,"7th St & Charlottetowne Ave",,35.219315,-80.827419,
45670,"Eastway Dr @ Church of God",,35.240944,-80.778785,
45680,"Tuckaseegee Rd & Little Rock Rd",,35.246440,-80.938062,
45690,"Dalecrest Dr & Cedarhurst Dr",,35.280859,-80.818369,
45700,"Tuckaseegee Rd @ West Meck High School",,35.246796,-80.950794,
45705,"30th St & Bellefonte Dr",,35.250521,-80.818040,
45712,"English Dr & Abelwood Rd",,35.268576,-80.862365,
45713,"English Dr & LaSalle St",,35.263263,-80.863303,
45714,"LaSalle St & Botany St",,35.262410,-80.860605,
45715,"Norris Ave & Graham St",,35.254801,-80.823753,
45717,"Norris Ave & Olando St",,35.256177,-80.826237,
45718,"Norris Ave & Graham St",,35.254668,-80.823704,
45719,"Norris Ave & Grimes St",,35.253438,-80.821391,
45720,"Trade St & Graham St",,35.230272,-80.846726,
45721,"30th St & Bellefonte Dr",,35.250440,-80.818081,
45725,"Norris Ave & Olando St",,35.256357,-80.826373,
45735,"English Dr & Englehardt St",,35.263192,-80.863179,
45741,"Statesville Ave & Woodward Ave",,35.248433,-80.835795,
45742,"Statesville Ave & Kohler Ave",,35.250145,-80.835803,
45743,"Statesville Ave & Mona Dr",,35.253103,-80.835886,
45744,"Statesville Ave & Moretz Ave",,35.255727,-80.835993,
45747,"Providence Rd & Alberto St",,35.206011,-80.824073,
45748,"Providence Rd & Alberto St",,35.205697,-80.824205,
45749,"4th St & Church St",,35.226785,-80.844501,
45750,"English Dr & Sutton Dr",,35.265514,-80.862859,
45754,"Prosperity Church Rd @ Senior Apts.",,35.347758,-80.774189,
45755,"Statesville Ave & Samuel St",,35.259123,-80.836755,
45756,"Nations Ford Rd & Tyvola Rd",,35.165955,-80.893721,
45758,"Arrowood Rd @ 2570",,35.147466,-80.930168,
45759,"WT Harris Blvd & Snow Ln",,35.197215,-80.726353,
45760,"Arrowood Rd @ 2550",,35.147628,-80.929710,
45761,"Oaklawn Ave & Stroud Park Ct",,35.246773,-80.840742,
45762,"Oaklawn Ave & Spring St",,35.245678,-80.837200,
45763,"Newland Rd & Gilbert St",,35.268107,-80.850805,
45765,"Honeywood Ave & Tennessee Ave",,35.263843,-80.874133,
45767,"Lawyers Rd & Meadow Glen Dr",,35.188478,-80.692701,
45768,"4th St & McDowell St",,35.220686,-80.837385,
45769,"Lakeview Rd & Potomac Blvd",,35.331106,-80.855538,
45770,"Lakeview Rd & Potomac Blvd",,35.331261,-80.855476,
45774,"Arrowood Rd & Whitehall Commons Center Dr",,35.148313,-80.933824,
45775,"Arrowood Rd & Stonegrove Ln",,35.150272,-80.935020,
45776,"Arrowood Rd & Whitehall Executive Center Dr",,35.151914,-80.937423,
45777,"Arrowood Rd & Savoy Corporate Dr",,35.155756,-80.942071,
45778,"Brown-Grier & Griers Fork Dr",,35.152340,-80.959678,
45779,"Brown-Grier & Sandy Porter RD",,35.152689,-80.953570,
45781,"Arrowood Rd & Gateway Academy",,35.147694,-80.932454,
45782,"Arrowood Rd & Stonegrove Ln",,35.150137,-80.934739,
45783,"Arrowood Rd & Whitehall Executive Center Dr",,35.151878,-80.937071,
45784,"Arrowood Rd & Savoy Corporate Dr",,35.155836,-80.941826,
45800,"Independence Blvd & Krefeld Dr",,35.157184,-80.733834,
45804,"Old Statesville Rd @ Davita Dialysis",,35.313451,-80.835105,
45806,"Old Statesville Rd & Gibbon Rd",,35.314980,-80.833665,
45813,"Northlake Mall (2nd Stop)",,35.349871,-80.854054,
45814,"Old Statesville Rd & Spring Trace Dr",,35.312586,-80.836136,
45815,"Northlake Mall Park & Ride",,35.352833,-80.855219,
45816,"Lakeview Rd & Reames Rd",,35.332088,-80.853209,
45817,"Lakeview Rd & Reames Rd",,35.332220,-80.852961,
45818,"Northlake Mall (1st stop)",,35.350306,-80.854621,
45820,"Pondella Dr & Bilmark Ave",,35.273147,-80.782482,
45822,"Statesville Rd & Metroment Pkwy",,35.354195,-80.840750,
45825,"3rd St & Torrence St",,35.212609,-80.829527,
45826,"Toddville Rd & Eneida Sue Dr",,35.266846,-80.919743,
45827,"Old Mt Holly Rd & East Todd Ln",,35.280174,-80.901795,
45828,"Toddville Rd & Freedom Dr",,35.263932,-80.920905,
45829,"Old Mt Holly Rd & Melynda Rd",,35.281535,-80.909335,
45830,"Freedom Dr & Eagles Landing Dr",,35.265793,-80.927231,
45831,"Freedom Dr & Wingate Dr",,35.273261,-80.935591,
45832,"Freedom Dr & Wingate Dr",,35.273116,-80.935332,
45833,"Freedom Dr & Teddington Dr",,35.265154,-80.925297,
45835,"Toddville Rd & Freedom Dr",,35.264245,-80.920549,
45836,"Old Mt Holly Rd & Melynda Rd",,35.281472,-80.909296,
45837,"Toddville Rd & Brooktree Dr",,35.267714,-80.919616,
45838,"Statesville Rd & WT Harris Blvd",,35.349928,-80.841279,
45839,"Statesville Rd & Spector Dr",,35.315360,-80.840219,
45840,"Southpark- Wheelchair Accessible",,35.153465,-80.832967,
45841,"Carowinds Employee Entrance",,35.103151,-80.945719,
45842,"Statesville Rd & Long Creek Park Dr",,35.329226,-80.843353,
45843,"Statesville Rd & Long Creek Park Dr",,35.328766,-80.843296,
45845,"Runnymede Ln & Michael Baker Pl",,35.167488,-80.836803,
45846,"West Blvd & Tryon St",,35.214353,-80.862449,
45848,"Lawyers Rd & Glenmont Dr",,35.190342,-80.701529,
45849,"Fairview Rd & Barclay Downs Dr",,35.149823,-80.834809,
45851,"Sharon Rd & Fairview Rd",,35.149602,-80.830357,
45852,"Statesville Rd & Spector Dr",,35.315361,-80.840296,
45854,"Statesville Rd & Metroment Pkwy",,35.352775,-80.840757,
45856,"Mallard Creek Church & Alexander Pointe",,35.323082,-80.736073,
45862,"Huntersville Gateway Park & Ride",,35.413750,-80.857073,
45863,"Wal-Mart @ Ashley & Wilkinson",,35.226569,-80.891602,
45864,"Briar Creek Rd & Commonwealth Ave",,35.210199,-80.794173,
45867,"Idlewild Rd & Cresthill Dr",,35.180324,-80.724964,
45868,"Equitable Pl & Grier Rd",,35.266286,-80.741067,
45869,"Grier Rd & WT Harris Blvd",,35.266441,-80.730633,
45872,"Equitable Pl & Grier Rd",,35.266581,-80.741006,
45874,"Albemarle Rd & Circumferential Rd",,35.211363,-80.693041,
45880,"Albemarle Rd & Faulconbridge Rd",,35.209752,-80.703080,
45890,"Albemarle Rd & Nathanael Greene Ln",,35.209460,-80.703295,
45901,"Oaklawn Ave & Rush Wind Dr",,35.248138,-80.844740,
45904,"Statesville Ave & Carmine St",,35.268077,-80.837598,
45905,"Statesville Ave & Carmine St",,35.268108,-80.837368,
45906,"Gilbert St & Beatties Ford Rd",,35.268276,-80.852682,
45907,"Gilbert St & Beatties Ford Rd",,35.268312,-80.852659,
45908,"WT Harris Blvd & Hickory Grove Rd",,35.222150,-80.724350,
45909,"WT Harris Blvd & Hickory Grove Rd",,35.222068,-80.724446,
45910,"Marvin Rd & Billingsley Rd",,35.192111,-80.799111,
45911,"Oaklawn Ave & Ethel Guest Ln",,35.246233,-80.839002,
45912,"Oaklawn Ave & Ethel Guest Ln",,35.246330,-80.838950,
45913,"Grier Rd & Nicolet Glen Dr",,35.272619,-80.723132,
45914,"Tryon St & 13th St",,35.233863,-80.833805,
45916,"Tuckaseegee Rd & Wilson Middle School Rd",,35.247283,-80.944430,
45921,"Mallard Creek Church Rd & Bonnie Cone Ln",,35.317691,-80.727270,
45922,"Matthews-Mint Hill Rd & Crestdale Rd",,35.117774,-80.710210,
45923,"Mallard Creek Church Rd & John Kirk",,35.315885,-80.724047,
45924,"Sam Newell Rd & Mann Dr",,35.124168,-80.717873,
45925,"Tom Hunter Rd & Hidden Forest Dr",,35.278509,-80.779643,
45927,"Mallard Creek Church Rd & University City Blvd",,35.309857,-80.718924,
45931,"Mallard Creek Church Rd & John Kirk Dr",,35.315473,-80.724088,
45932,"Sam Newell Rd & Mann Dr",,35.124111,-80.718002,
45935,"Tom Hunter Rd & Monteith Dr",,35.278777,-80.776006,
45936,"Mallard Creek Church Rd & University City Blvd",,35.309864,-80.719327,
45937,"Tryon St & Arrowhead Dr",,35.270552,-80.767550,
45945,"Tom Hunter Rd & Canterwood Dr",,35.278477,-80.769317,
45947,"Tryon St & Tom Hunter Rd",,35.276871,-80.766772,
45948,"Monroe Rd & Matthews Township Pkwy",,35.123648,-80.729251,
45949,"Tryon St & Arrowhead Dr",,35.274078,-80.767139,
45955,"Bilmark Ave & Hughes Dr",,35.271285,-80.779605,
45957,"Monroe Rd @ 10801",,35.126780,-80.730298,
45958,"Mallard Creek Church Rd & University Village Blvd",,35.313741,-80.721522,
45959,"Mallard Creek Church Rd & University Village Blvd",,35.313783,-80.721897,
45965,"Pondella Dr & Kirt Ct",,35.274522,-80.781104,
45975,"Mt Kisco Dr & Squirrel Hill Rd",,35.271751,-80.786435,
45977,"Snow White Ln & Thornwood Rd",,35.268791,-80.786966,
45979,"Cinderella Rd & Hidden Valley Rd",,35.265396,-80.788755,
45985,"Squirrel Hill Rd & Thornwood Rd",,35.270247,-80.787367,
46000,"Scaleybark Station",,35.191673,-80.875998,
46002,"Scaleybark Station",,35.191749,-80.876165,
46010,"Woodlawn Station",,35.175937,-80.879552,
46025,"Tyvola Station",,35.163319,-80.877305,
46035,"Archdale Station",,35.152474,-80.877792,
46040,"Arrowood Station",,35.134906,-80.876563,
46045,"Arrowood Station",,35.135078,-80.876549,
46050,"Sharon Road West Station",,35.119683,-80.882008,
46055,"Sharon Road West Station",,35.119811,-80.881872,
46065,"I-485 Station",,35.107763,-80.883651,
46070,"I-485 Station",,35.107286,-80.883314,
46072,"I-485 Station",,35.107299,-80.883021,
46100,"Tryon St & Arrowcreek Dr",,35.145732,-80.926748,
46101,"West Blvd & Mint St",,35.215877,-80.866087,
46102,"West Blvd & Mint St",,35.215600,-80.865183,
46103,"Tyvola Rd & Tryon St",,35.168882,-80.904443,
46104,"Tyvola Rd & Nations Ford Rd",,35.163362,-80.896660,
46105,"Tyvola Rd & Nations Ford Rd",,35.163539,-80.896728,
46106,"Tyvola Rd & Free Throw Ln",,35.162959,-80.899296,
46107,"Tyvola Rd & Tyvola Centre Dr",,35.164457,-80.903509,
46108,"Tyvola Rd & Tryon St",,35.167953,-80.903889,
46109,"Tryon St & Southampton Rd",,35.173096,-80.898838,
46110,"Tryon St & Kingman Dr",,35.175007,-80.895204,
46111,"Tryon St & Yorkmont Rd",,35.178189,-80.891560,
46112,"Sharon Rd West & Brandon Forest Dr",,35.117493,-80.859385,
46113,"Sharon Rd West & Hopeton Rd",,35.118105,-80.864686,
46114,"Sharon Rd West & Hopeton Rd",,35.118040,-80.865327,
46115,"Sharon Rd West & Brandon Forest Dr",,35.117307,-80.859616,
46116,"Nations Ford Rd & Tryon St",,35.177996,-80.891227,
46117,"Nations Ford Rd & Radford Ave",,35.172007,-80.890606,
46118,"Nations Ford Rd & Lone Pine Ln",,35.168805,-80.892018,
46119,"Arrowood Rd & Nations Ford Rd",,35.135825,-80.890349,
46120,"Arrowood Rd & Silver Arrow Dr",,35.136417,-80.887974,
46121,"Arrowood Rd & Kings Ridge Dr",,35.137207,-80.884249,
46122,"Arrowood Rd & England St",,35.137852,-80.879866,
46123,"Arrowood Rd & Old Pineville Rd",,35.138035,-80.879886,
46124,"Arrowood Rd & Kings Ridge Dr",,35.137386,-80.884156,
46125,"Arrowood Rd & Silver Arrow Dr",,35.136444,-80.888186,
46126,"Arrowood Rd & Nations Ford Rd",,35.135931,-80.890409,
46134,"Old Steele Creek Rd & Wilkinson Blvd",,35.223589,-80.898696,
46139,"Old Steele Creek Rd & Wilkinson Blvd",,35.223577,-80.898555,
46143,"Charlottetowne Ave & Kings Dr",,35.213729,-80.835472,
46149,"Charlottetowne Ave & Kings Dr",,35.213704,-80.835690,
46150,"Tryon St & Tyvola Centre Dr",,35.165120,-80.911725,
46151,"Tryon St & Courtney Oaks Rd",,35.160910,-80.918640,
46152,"Tryon St & Yorkdale Dr",,35.156912,-80.922398,
46153,"Tryon St & Thornfield Rd",,35.152551,-80.924078,
46154,"Tryon St & Arrowood Rd",,35.148278,-80.925784,
46155,"Tryon St & Westinghouse Blvd",,35.128808,-80.942208,
46156,"Tryon St & General Dr",,35.121559,-80.949146,
46157,"Tryon St & John Price Rd",,35.117076,-80.958381,
46158,"Tryon St & Garden Oaks Ln",,35.113406,-80.968011,
46159,"Tryon St & Erwin Rd",,35.111713,-80.972476,
46160,"Tryon St & Choate Rd",,35.108405,-80.978122,
46162,"Tryon St & Choate Rd",,35.108223,-80.977994,
46163,"Tryon St & Erwin Rd",,35.111403,-80.972592,
46164,"Tryon St & Savannah Club Dr",,35.113485,-80.967275,
46165,"Tryon St & Carowinds Blvd",,35.117905,-80.956203,
46166,"Tryon St & General Dr",,35.121700,-80.948397,
46167,"Tryon St & Westinghouse Blvd",,35.127712,-80.942417,
46168,"Tryon St & Westinghouse Blvd",,35.131103,-80.941014,
46169,"Tryon St & Arrowood Rd",,35.147963,-80.925703,
46170,"Tryon St & Thornfield Rd",,35.153676,-80.923425,
46171,"Tryon St & Yorkdale Dr",,35.156513,-80.922395,
46172,"Tryon St & Land Grant Rd",,35.160579,-80.918870,
46173,"Tryon St & Tyvola Centre Dr",,35.164910,-80.911770,
46174,"Carowinds Blvd & Choate Cir",,35.100092,-80.948175,
46175,"Carowinds Blvd @ John Deere",,35.102302,-80.951873,
46176,"South Point Blvd & Carowinds Blvd",,35.106219,-80.955548,
46177,"South Lakes Dr & South Point Blvd",,35.107707,-80.958397,
46178,"South Ridge Dr @ 13501",,35.111464,-80.960557,
46179,"South Ridge Dr & South Point Blvd",,35.114130,-80.959849,
46180,"South Point Blvd @ 13500",,35.111472,-80.957708,
46181,"South Point Blvd & South Lakes Dr",,35.108113,-80.957577,
46182,"South Point Blvd & Carowinds Blvd",,35.106005,-80.956045,
46183,"Carowinds Blvd @ TJ Maxx",,35.102200,-80.951911,
46184,"Carowinds Blvd & Choate Cir",,35.100330,-80.949224,
46185,"Hamlin Park Dr & Brandon Forest Dr",,35.115520,-80.857991,
46186,"Johnston Rd & Hwy 51",,35.088721,-80.853242,
46189,"Johnston Rd & Hwy 51",,35.086911,-80.852921,
46190,"Johnston Rd & Cedar Creek Ln",,35.091913,-80.856016,
46191,"Johnston Rd & Cedar Point Ln",,35.093744,-80.857943,
46192,"Crump Rd & Westinghouse Blvd",,35.112755,-80.884829,
46193,"Westinghouse Blvd & Old Nations Ford Rd",,35.112212,-80.895648,
46194,"Westinghouse Blvd & Culp Rd",,35.110881,-80.905651,
46195,"Westinghouse Blvd & Downs Rd",,35.111148,-80.909266,
46196,"Westinghouse Blvd & Nations Ford Rd",,35.111206,-80.915156,
46197,"Westinghouse Blvd & Texland Blvd",,35.113043,-80.920420,
46198,"Steele Creek Rd & Leighann Wood Ln",,35.142311,-80.974455,
46199,"Steele Creek Rd & Branch Bend Ln",,35.145311,-80.972664,
46200,"Steele Creek Rd & Collingham Dr",,35.149139,-80.971482,
46201,"Steele Creek Rd & Steele Oaks Dr",,35.151052,-80.970895,
46202,"Steele Creek Rd & Brown-Grier Rd",,35.153544,-80.969990,
46203,"Brown-Grier Rd & Cedar Hill Dr",,35.153490,-80.965995,
46204,"Brown-Grier Rd & Griers Fork Dr",,35.152210,-80.959516,
46211,"Westinghouse Blvd & Wilmar Blvd",,35.117672,-80.930691,
46212,"Westinghouse Blvd & Texland Blvd",,35.112963,-80.920656,
46213,"Westinghouse Blvd & Nations Ford Rd",,35.111316,-80.915808,
46214,"Westinghouse Blvd & Downs Rd",,35.110903,-80.909618,
46215,"Westinghouse Blvd & Culp Rd",,35.110782,-80.905652,
46216,"Westinghouse Blvd & Old Nations Ford Rd",,35.111970,-80.895977,
46217,"Crump Rd & Westinghouse Blvd",,35.113235,-80.884484,
46239,"Farmhurst Dr & Nations Ford Rd",,35.143781,-80.894361,
46240,"Farmhurst Dr @ Tree Top Apts",,35.146585,-80.893426,
46241,"High Meadow Ln @ Tree Top Apts",,35.148547,-80.891548,
46242,"Archdale Dr @ 500",,35.151001,-80.892779,
46243,"Archdale Dr @ Lexington Green Apts",,35.152665,-80.891252,
46244,"Archdale Dr & Ashcrest Dr",,35.153328,-80.885063,
46245,"Archdale Dr & Montcrest Dr",,35.152955,-80.882358,
46247,"Archdale Dr & South Blvd",,35.152664,-80.875140,
46248,"Archdale Dr & Burnley Rd",,35.152243,-80.870710,
46249,"Archdale Dr & Montpelier Rd",,35.149803,-80.868182,
46250,"Archdale Dr & Emerywood Dr",,35.147872,-80.864390,
46251,"Archdale Dr & Leafcrest Ln",,35.147423,-80.860545,
46252,"Archdale Dr & Old Reid Rd",,35.147397,-80.854582,
46253,"Archdale Dr & Park Rd",,35.144930,-80.848216,
46254,"Park South Dr & Winslow Green Dr",,35.145332,-80.844779,
46255,"Park South Dr & Royal Crest Dr",,35.149143,-80.842811,
46256,"Park South Dr & Fairview Rd",,35.150782,-80.842005,
46257,"Park South Dr @ Brighton Senior Center",,35.150036,-80.842483,
46258,"Park South Dr & Royal Crest Dr",,35.148469,-80.843220,
46259,"Park South Dr & Pine Valley Rd",,35.145903,-80.844608,
46260,"Archdale Dr & Park Rd",,35.145047,-80.848289,
46261,"Archdale Dr & Old Reid Rd",,35.147431,-80.854479,
46262,"Archdale Dr & Park Royal Ave",,35.147519,-80.862358,
46263,"Archdale Dr & Emerywood Dr",,35.147939,-80.864345,
46264,"Archdale Dr & Montpelier Rd",,35.150273,-80.868564,
46265,"Archdale Dr & Burnley Rd",,35.152003,-80.870266,
46266,"Archdale Dr & South Blvd",,35.152804,-80.875150,
46268,"Archdale Dr & Montcrest Dr",,35.153017,-80.882276,
46269,"Archdale Dr & Ashcrest Dr",,35.153330,-80.884802,
46270,"Archdale Dr @ Highland Apts",,35.152762,-80.890906,
46271,"Archdale Dr @ 501",,35.150624,-80.892981,
46272,"High Meadow Ln @ Tree Top Apts",,35.148628,-80.891613,
46273,"Farmhurst Dr @ The Landings Apts",,35.146393,-80.890283,
46274,"Farmhurst Dr & Fairgreen Dr",,35.144162,-80.890563,
46280,"Scaleybark Rd & Belrose Ln",,35.175188,-80.860143,
46281,"Scaleybark Rd & Sewickley Dr",,35.179532,-80.862762,
46282,"Scaleybark Rd & Aycock Ln",,35.181154,-80.864663,
46283,"Scaleybark Rd & Hartford Ave",,35.185585,-80.869936,
46284,"Scaleybark Rd & South Blvd",,35.188222,-80.874097,
46285,"Scaleybark Rd & Conway Ave",,35.188195,-80.874217,
46286,"Scaleybark Rd & Hartford Ave",,35.185540,-80.870005,
46287,"Scaleybark Rd & Murrayhill Rd",,35.181907,-80.865701,
46288,"Scaleybark Rd & Falls Creek Ln",,35.179385,-80.862815,
46289,"Scaleybark Rd & Brookrun Dr",,35.174996,-80.860357,
46309,"Tyvola Rd & South Stream Blvd",,35.184015,-80.919422,
46323,"Johnston Rd & Birnen Dr",,35.096452,-80.859438,
46324,"Tryon St & Rivergate Pkwy",,35.104867,-80.984022,
46326,"Tryon St & Crescent Springs",,35.118924,-80.954623,
46327,"Tryon St & Moss Rd",,35.115060,-80.962684,
46328,"Tryon St & Moss Rd",,35.114660,-80.963402,
46330,"Ballantyne Corporate Pl & Brixham Hill Ave",,35.060504,-80.855617,
46331,"Ballantyne Corporate Pl & Johnston Rd",,35.061680,-80.852937,
46332,"Ballantyne Corporate Pl & Ballantyne Commons Pkwy",,35.056929,-80.843599,
46333,"Catawba Ave & Nantz Rd",,35.469022,-80.890365,
46334,"Catawba Ave & Nantz Rd",,35.469009,-80.890201,
46335,"England St & Arrowood Rd",,35.135476,-80.879682,
46336,"England St & Arrowood Rd",,35.135554,-80.879546,
46341,"Grier Rd & Nicolet Glen Dr",,35.272440,-80.723147,
46342,"University City Blvd & John Kirk Dr",,35.306710,-80.723307,
46343,"Westinghouse Blvd & Tryon St",,35.130010,-80.942954,
46344,"Westinghouse Commons Dr & Westinghouse Blvd",,35.135858,-80.973505,
46345,"Statesville Rd & Westmoreland Rd",,35.464076,-80.870867,
46346,"Statesville Rd & Westmoreland Rd",,35.464743,-80.871248,
46350,"Ashley Rd & Dublin Rd",,35.229785,-80.893152,
46351,"Ashley Rd & Dublin Rd",,35.229994,-80.893445,
46354,"Park Rd & Gleneagles Rd",,35.119321,-80.855092,
46355,"Park Rd & Carolina Place Pkwy",,35.075322,-80.877763,
46356,"Tryon St & Queen Anne Rd",,35.171151,-80.902220,
46358,"Dalecrest Dr & Ashmont Pl",,35.279091,-80.814328,
46361,"Statesville Rd @ 7600",,35.325201,-80.843300,
46362,"Statesville Rd @ 7801",,35.325318,-80.843485,
46364,"Statesville Rd & Harris Oaks Blvd",,35.342610,-80.841854,
46376,"Statesville Rd & Lakeview Rd",,35.335233,-80.842657,
46377,"Westinghouse Blvd & Fruehauf Dr",,35.132603,-80.958901,
46378,"Ballantyne Commons Pl & Johnston Rd",,35.055234,-80.846359,
46379,"Mallard Creek Church Rd & Claude Freeman Dr",,35.338119,-80.761135,
46380,"Brown-Grier Rd & Sandy Porter Rd",,35.152605,-80.953425,
46381,"Statesville Rd & Lakeview Rd",,35.336040,-80.842675,
46382,"South Blvd & Sharon Rd West",,35.119364,-80.881370,
46383,"South Blvd & Sharon Rd West",,35.118436,-80.881825,
46384,"Sharon Road West Station",,35.119266,-80.882192,
46388,"Tyvola Rd & Yorkmont Rd",,35.188427,-80.921841,
46389,"Tyvola Rd & South Stream Blvd",,35.183551,-80.919053,
46393,"Rosada Ave & Echo Glen Rd",,35.275331,-80.782194,
46401,"Freedom Dr & Old Mt Holly Rd",,35.277182,-80.937015,
46402,"Freedom Dr & Old Mt Holly Rd",,35.277358,-80.937238,
46405,"Idlewild Rd & Wyalong Dr",,35.175145,-80.708920,
46406,"Mintworth Ave & Margaret Wallace Rd",,35.171881,-80.709226,
46408,"Pineville Rd & Industrial Dr",,35.094426,-80.884000,
46409,"Polk St & Morrow Ave",,35.092157,-80.885005,
46410,"Polk St @ 413",,35.089031,-80.886391,
46411,"Polk St & College St",,35.087131,-80.886808,
46412,"Harris Corners Pkwy & Maple View Ln",,35.345223,-80.842969,
46413,"Harris Corners Pkwy & Harris Oaks Blvd",,35.344606,-80.846238,
46414,"Carrowmore Pl & Thornton Rd",,35.234499,-80.905269,
46415,"Graham St & 10th St",,35.234941,-80.840839,
46416,"Tryon St & Ashby St",,35.237738,-80.829121,
46417,"Graham St @ 5624 (Food Lion)",,35.289557,-80.798576,
46418,"West Blvd & Dawnalia Dr",,35.207074,-80.918794,
46419,"Freedom Dr & Elmwood Cir",,35.267833,-80.931595,
46420,"Freedom Dr & McDonald Rd",,35.268087,-80.931297,
46421,"Tuckaseegee Rd & Queen City Dr",,35.246262,-80.899674,
46422,"Brandon Forest Dr & Stradbrook Dr",,35.116401,-80.859145,
46423,"Tryon St & Tyvola Rd",,35.169432,-80.904920,
46426,"Beatties Ford Rd & Pauline Ln",,35.308416,-80.861015,
46431,"Statesville Rd & Transport Dr",,35.339927,-80.842280,
46432,"Statesville Rd & Transport Dr",,35.339582,-80.842189,
46434,"Statesville Rd @ 7349",,35.322428,-80.842763,
46435,"Statesville Rd @ 7320",,35.322240,-80.842608,
46436,"Independence Blvd & Sam Newell Rd",,35.134959,-80.713448,
46439,"Northlake Centre Pkwy & Point O'Woods Dr",,35.349580,-80.856913,
46440,"Griffith St & Grocery Ln",,35.502135,-80.860651,
46441,"Griffith St & Grocery Ln",,35.502300,-80.860837,
46444,"Forest Point Blvd & Arrowood Rd",,35.136978,-80.903297,
46445,"Forest Point Blvd @ Samaritan's Purse",,35.142803,-80.897701,
46446,"Forest Point Blvd @ Empl. Sec. Comm.",,35.142024,-80.899881,
46447,"Forest Point Blvd @ Samaritan's Purse",,35.142681,-80.897782,
46448,"Forest Point Blvd @ Empl. Sec. Comm.",,35.141855,-80.899921,
46449,"Toddville Rd & CSX Way",,35.271146,-80.917331,
46451,"Beaty St @ 866",,35.509161,-80.844006,
46452,"Beaty St & Barra Row",,35.509098,-80.845193,
46453,"Beaty St & Lakeview Ave",,35.505776,-80.852423,
46454,"Davidson Gateway Dr & Southeast Dr",,35.499349,-80.862996,
46455,"Sloan St & Eden St",,35.500959,-80.852163,
46463,"Back Creek Dr & University East Dr",,35.284700,-80.728773,
46464,"Rocky River Rd & WT Harris Blvd",,35.275711,-80.726479,
46465,"Rocky River Rd & WT Harris Blvd",,35.275874,-80.726592,
46467,"Johnston Rd & Harrowfield Rd",,35.081772,-80.851242,
46468,"Johnston Rd & Carmel Rd",,35.081421,-80.850785,
46475,"Burkland Dr & Marvin Rd",,35.194830,-80.800948,
46477,"Monroe Rd @ 10804",,35.126555,-80.730409,
46481,"Providence Rd & Ashleytown Ln",,35.074506,-80.773014,
46482,"Providence Rd & Ashleytown Ln",,35.074665,-80.772694,
46483,"Providence Rd & Sharon Amity Rd",,35.170158,-80.806768,
46484,"Old Mt Holly Rd & Todd Ln",,35.280520,-80.904172,
46487,"Reames Rd @ Lee's Living Center",,35.339117,-80.856807,
46488,"Reames Rd & Auston Crossing Dr",,35.336159,-80.854154,
46489,"Reames Rd & Auston Crossing Dr",,35.336270,-80.854090,
46490,"Reames Rd @ Lee's Living Center",,35.339078,-80.856659,
46491,"Johnston Rd & Corporate Center Dr",,35.085835,-80.853120,
46492,"Springhill Farm Rd & Centre Dr",,35.090933,-80.924725,
46493,"Springhill Farm Rd & Centre Dr",,35.090814,-80.924704,
46494,"Old Mt Holly Rd & Toddville Rd",,35.281796,-80.914040,
46495,"Old Mt Holly Rd & West Ave",,35.281864,-80.911838,
46497,"Davidson Gateway Dr & Griffith St",,35.501495,-80.864487,
46498,"East Blvd & South Blvd",,35.211391,-80.857345,
46499,"East Blvd & South Blvd",,35.211450,-80.857235,
46500,"Toddville Rd & CSX Way",,35.271149,-80.917131,
46501,"Mt Holly-Huntersville Rd & Garron Point Rd",,35.302552,-80.985379,
46502,"Mt Holly-Huntersville Rd & Garron Point Rd",,35.302493,-80.985284,
46503,"Mt Holly-Huntersville Rd & Rozzelles Ferry Rd",,35.319911,-80.953523,
46504,"Mt Holly-Huntersville Rd & Rozzelles Ferry Rd",,35.319772,-80.953486,
46505,"Mt Holly-Huntersville Rd & Couloak Dr",,35.324047,-80.947593,
46506,"Mt Holly-Huntersville Rd & Couloak Dr",,35.323612,-80.948297,
46507,"Callabridge Ct @ Walmart",,35.327750,-80.945113,
46508,"Callabridge Ct @ Walmart (back)",,35.329540,-80.947581,
46511,"Johnston Rd & Porterfield Rd",,35.076404,-80.841362,
46512,"Johnston Rd & Porterfield Rd",,35.076314,-80.841542,
46517,"Johnston Rd & Walsh Blvd",,35.088983,-80.853253,
46518,"Callabridge Ct @ Walmart",,35.327619,-80.945093,
46519,"Mt Holly-Huntersville Rd & Northwoods Forest Dr",,35.311898,-80.969403,
46520,"Mt Holly-Huntersville Rd & Northwoods Forest Dr",,35.311376,-80.970247,
46521,"Reames Rd & Prestbury Blvd",,35.342460,-80.858468,
46523,"Eastway Dr & Independence Blvd",,35.204292,-80.785091,
46524,"Eastway Dr & Independence Blvd",,35.204588,-80.785097,
46525,"David Taylor Dr & Research Dr",,35.319727,-80.758443,
46527,"Mt Holly Rd & Ventner Ct",,35.284696,-80.949955,
46528,"Mt Holly Rd & Ventner Ct",,35.284614,-80.949339,
46529,"Mt Holly Rd & Meadecroft Rd",,35.286155,-80.956787,
46530,"Mt Holly Rd & Meadecroft Rd",,35.286531,-80.957562,
46531,"Mt Holly-Huntersville Rd & Newfound Hollow Dr",,35.308838,-80.976093,
46532,"Mt Holly-Huntersville Rd & Newfound Hollow Dr",,35.308643,-80.976212,
46533,"Mt Holly Rd & Sonoma Valley Dr",,35.290629,-80.968952,
46534,"Mt Holly Rd & Sonoma Valley Dr",,35.290834,-80.968813,
46535,"Tyvola Rd & Yorkmont Rd",,35.188432,-80.921578,
46536,"Tryon St & Rivergate Pkwy",,35.105963,-80.982326,
46539,"Toddville Rd & Macon St",,35.278403,-80.914795,
46548,"Archdale Dr & Telfair Rd",,35.145468,-80.851423,
46549,"Archdale Dr & Telfair Rd",,35.145551,-80.851178,
46550,"Mt Holly Rd & Chattaroy Dr",,35.296568,-80.977245,
46551,"Mt Holly Rd & Chattaroy Dr",,35.296625,-80.977446,
46552,"Mt Holly-Huntersville Rd & Cayenne Dr",,35.315881,-80.960445,
46553,"Mt Holly-Huntersville Rd & Country Ln",,35.315861,-80.961254,
46554,"Griffith St & Lakeside Ave",,35.502996,-80.856303,
46555,"Mt Holly-Huntersville Rd & Brookmere Ln",,35.309485,-80.974746,
46556,"Mt Holly-Huntersville Rd & Dipali Ct",,35.309494,-80.974436,
46557,"Wilkinson Blvd & Huntlynn Rd",,35.240599,-80.977153,
46558,"Wilkinson Blvd & Huntlynn Rd",,35.240870,-80.977534,
46559,"Back Creek Dr & WT Harris Blvd",,35.282654,-80.724743,
46560,"Windsor Square Dr & Independence Blvd",,35.132748,-80.712698,
46561,"Forest Point Cir @ School of Nursing",,35.132391,-80.904110,
46562,"Forest Point Cir & Forest Point Blvd",,35.131150,-80.906150,
46563,"Forest Point Blvd & Arrowood Rd",,35.137047,-80.903177,
46564,"Rocky River Rd & Grier Rd",,35.275862,-80.720212,
46565,"Rocky River Rd & Grier Rd",,35.275942,-80.720140,
46570,"Independence Blvd & Rice Rd",,35.139706,-80.717644,
46575,"Independence Blvd & Rice Rd",,35.139702,-80.717892,
46577,"Stumptown Rd & Bytham Castle Dr",,35.427598,-80.873600,
46578,"Stumptown Rd & Bytham Castle Dr",,35.426242,-80.872252,
46579,"Stumptown Dr & Bytham Castle Dr",,35.426185,-80.872633,
46580,"Northcross Dr & Bridgeford Ln",,35.431732,-80.872188,
46581,"Northcross Dr & Bridgeford Ln",,35.432555,-80.871385,
46582,"Northcross Dr & Andy Dr",,35.440887,-80.873936,
46583,"Northcross Dr & Andy Dr",,35.440689,-80.874066,
46593,"Johnston Rd & North Community House Rd",,35.070232,-80.842934,
46594,"Stonewall St & College St",,35.222686,-80.847543,
46601,"Mt Holly-Huntersville Rd & Falls Branch Ln",,35.305389,-80.980337,
46602,"Mt Holly-Huntersville Rd & Falls Branch Ln",,35.304986,-80.980447,
46603,"Mt. Holly-Huntersville Rd & Bellhaven",,35.323126,-80.949570,
46604,"Mt. Holly-Huntersville Rd & Rozzelles Ferry",,35.321807,-80.951460,
46620,"Mallard Creek Rd & Legacy Park Dr",,35.323604,-80.774114,
46625,"Mallard Creek Rd & Island Park Cir",,35.327265,-80.772862,
46640,"Tyvola Rd @ Renaissance Athletic Fields",,35.176062,-80.909941,
46641,"Tyvola Rd & City Park Dr",,35.181368,-80.915782,
46642,"Tyvola Rd & City Park Dr",,35.181883,-80.916950,
46645,"Tyvola Rd @ Renaissance Golf Course",,35.175888,-80.910167,
46654,"Mt Holly Rd & Hugh Caldwell Rd",,35.282230,-80.943763,
46655,"Mt Holly Rd & Hugh Caldwell Rd",,35.282193,-80.944027,
46660,"Statesville Rd & Alexandriana Rd",,35.368503,-80.840521,
46665,"Statesville Rd & Alexandriana Rd",,35.368400,-80.840918,
46688,"Elm Ln & Williams Pond Ln",,35.053938,-80.814365,
46689,"Statesville Rd & Sunset Rd",,35.311489,-80.838861,
46692,"Statesville Rd & Sunset Rd",,35.311231,-80.839237,
46694,"Idlewild Rd & Chenango Dr",,35.177252,-80.721339,
46695,"CMC Steelecroft",,35.100034,-80.992048,
46697,"Idlewild Rd & Cross Winds Rd",,35.177045,-80.720635,
46698,"Amtrak Station",,35.241403,-80.822760,
46700,"Rivergate Pkwy & Tryon St",,35.102014,-80.983849,
46701,"Rivergate Pkwy & Tryon St",,35.102205,-80.983373,
46702,"Prosperity Church Rd & Driwood Ct",,35.342342,-80.769445,
46703,"Prosperity Church Rd & Driwood Ct",,35.342427,-80.769326,
46705,"Prosperity Church Rd @ Stone Bridge Church",,35.347900,-80.774085,
46710,"Prosperity Church Rd & Katelyn Dr",,35.352318,-80.779072,
46715,"Prosperity Church Rd & Katelyn Dr",,35.352268,-80.778763,
46720,"Prosperity Church Rd & Heritage Hills Ln",,35.356882,-80.781678,
46725,"Prosperity Church Rd & Billingham Dr",,35.356709,-80.781500,
46730,"Prosperity Church Rd & Panthersville Dr",,35.362023,-80.783377,
46731,"Prosperity Church Rd @ 4722",,35.359792,-80.782318,
46732,"Benfield Rd @ Shads Landing",,35.364196,-80.786686,
46733,"Benfield Rd & Prosperity Park Dr",,35.364396,-80.786595,
46735,"Prosperity Church Rd & Loganville Dr",,35.362905,-80.784601,
46750,"Westinghouse Blvd & I-77",,35.116079,-80.926472,
46755,"Westinghouse Blvd & I-77",,35.115889,-80.926658,
49090,"Johnston Rd & Hildreth Ct",,35.079212,-80.846818,
49093,"Johnston Rd & Toringdon Way",,35.067876,-80.844141,
49100,"Statesville Rd @ 19117",,35.474187,-80.874565,
49101,"Statesville Rd @ 19300",,35.475555,-80.874318,
49293,"Walmart @ Pierson Dr (front)",,35.200458,-80.775577,
49294,"Bamboo St & Wilshire Pl",,35.200871,-80.772498,
49296,"Walmart @ Pierson & Independence",,35.198685,-80.775949,
49297,"Park Rd & Carolina Place Pkwy",,35.075318,-80.876746,
49298,"Mt Holly-Huntersville Rd & Pawley Dr",,35.303967,-80.982519,
49310,"Statesville Rd & Holly Point Dr",,35.440104,-80.865145,
49311,"Statesville Rd & Holly Point Dr",,35.439897,-80.865496,
49331,"Scaleybark Rd & University Dr",,35.183317,-80.867434,
49334,"Carowinds Blvd & Pleasant Rd",,35.098663,-80.945087,
49335,"Independence Bv @ 6951",,35.167398,-80.742631,
49336,"Wendover Rd & Latrobe Dr",,35.193246,-80.794726,
49337,"Wendover Rd & Latrobe Dr",,35.193347,-80.794941,
49338,"Hwy 51 & Marfield Ln",,35.090049,-80.909937,
49339,"Hwy 51 & Marfield Ln",,35.090389,-80.909850,
49350,"Harrisburg Rd & First Run Ct",,35.229297,-80.678747,
49351,"Harrisburg Rd & First Run Ct",,35.229515,-80.678729,
49360,"Harrisburg Rd & Timbertop Ln",,35.238877,-80.666797,
49361,"Harrisburg Rd & Timbertop Ln",,35.239095,-80.666780,
49370,"Cambridge Commons Dr @ 8100",,35.252871,-80.657959,
49380,"Matthews Township Pkwy & W John St",,35.122176,-80.729567,
49381,"Matthews Township Pkwy & W John St",,35.121878,-80.729811,
49385,"Matthews Township Pkwy & Sardis Rd",,35.118183,-80.739239,
49386,"Matthews Township Pkwy & Sardis Rd",,35.118412,-80.739196,
49390,"Pineville-Matthews Rd & Schooner Ln",,35.114807,-80.750181,
49391,"Pineville-Matthews Rd & Schooner Ln",,35.114543,-80.748511,
49394,"Pineville-Matthews Rd & Alexander Rd",,35.114701,-80.752366,
49395,"Pineville-Matthews Rd & Alexander Rd",,35.114016,-80.754165,
49400,"Pineville-Matthews Rd & Echo Forest Dr",,35.110005,-80.762064,
49401,"Pineville-Matthews Rd & Echo Forest Dr",,35.110328,-80.761224,
49402,"Pineville-Matthews Rd & Beverly Crest Bv",,35.106722,-80.766548,
49403,"Pineville-Matthews Rd & Hugh Forest Rd",,35.106229,-80.766780,
49406,"Pineville-Matthews Rd & Beckmore Pl",,35.104136,-80.770853,
49407,"Pineville-Matthews Rd & Beckmore Pl",,35.104028,-80.770492,
49410,"Pineville-Matthews Rd & Arboretum Dr",,35.100861,-80.776994,
49411,"Pineville-Matthews Rd & Arboretum Dr",,35.100373,-80.777174,
49414,"Pineville-Matthews Rd & Providence Rd",,35.099959,-80.779984,
49420,"Pineville-Matthews Rd & Arboretum View",,35.098423,-80.783823,
49421,"Pineville-Matthews Rd & Arboretum View",,35.098356,-80.783308,
49425,"Pineville-Matthews Rd & Strawberry Ln",,35.092620,-80.796757,
49430,"Pineville-Matthews Rd & Rea Rd",,35.087208,-80.813964,
49431,"Pineville-Matthews Rd & Rea Rd",,35.087015,-80.813536,
49433,"Pineville-Matthews Rd & Elm Ln",,35.084152,-80.822568,
49434,"Pineville-Matthews Rd & Elm Ln",,35.084226,-80.822832,
49436,"Pineville-Matthews Rd & Baybrook Ln",,35.082953,-80.830136,
49437,"Pineville-Matthews Rd & Baybrook Ln",,35.083329,-80.830727,
49438,"Pineville Matthews Rd & Bannington Rd",,35.086804,-80.837254,
49439,"Pineville Matthews Rd & Bannington Rd",,35.087062,-80.837379,
49440,"Pineville-Matthews Rd & Carmel Executive Dr",,35.087761,-80.842275,
49441,"Pineville-Matthews Rd & Carmel Commons Blvd",,35.087641,-80.843633,
49450,"Pineville-Matthews Rd & Carmel Rd",,35.087870,-80.846263,
49451,"Pineville-Matthews Rd & Carmel Rd",,35.087596,-80.847368,
49454,"Pineville-Matthews Rd & Johnston Rd",,35.087792,-80.850679,
49460,"Pineville-Matthews Rd & Johnston Rd",,35.087756,-80.855801,
49461,"Pineville-Matthews Rd & Johnston Rd",,35.087579,-80.851982,
49465,"Pineville-Matthews Rd & McMullen Creek Pkwy",,35.087548,-80.856677,
49470,"Pineville-Matthews Rd @ 8500",,35.087709,-80.862722,
49471,"Pineville-Matthews Rd & Blue Heron Dr",,35.087467,-80.863034,
49500,"Village Lake Dr & Creekridge Rd",,35.161504,-80.742514,
49501,"Village Lake Dr & Creekridge Rd",,35.161557,-80.742965,
49510,"Village Lake Dr & Woodscape Dr",,35.159249,-80.747166,
49511,"Village Lake Dr & Woodscape Dr",,35.159743,-80.747318,
49520,"Albemarle Rd & Greenbrook Dr",,35.200917,-80.763429,
49521,"Albemarle Rd & Sharon Amity Rd",,35.201266,-80.761426,
49523,"Albemarle Rd & Redman Rd",,35.203867,-80.750791,
49524,"Albemarle Rd & Redman Rd",,35.204182,-80.750960,
49602,"Ikea Blvd @ 8300",,35.292137,-80.762337,
49603,"Ikea Blvd @ Burlington",,35.291719,-80.762465,
49610,"Ikea Blvd @ 8204",,35.294618,-80.762686,
49611,"IKEA Blvd @ 8203",,35.294840,-80.762416,
49620,"University Pointe Blvd @ Walmart",,35.296631,-80.757756,
49800,"CPCC Levine Campus",,35.105223,-80.694329,
49840,"Alexandriana Rd & Northlake Auto Plaza Bv",,35.370437,-80.833856,
49841,"Alexandriana Rd & Northlake Auto Plaza Bv",,35.370297,-80.834105,
49850,"Bryton Town Center Dr @ Walmart (Southbound)",,35.371811,-80.827822,
49854,"Old Statesville Rd & Hambright Rd",,35.376537,-80.833271,
49855,"Old Statesville Rd & Hambright Rd",,35.377836,-80.833722,
49860,"Old Statesville Rd & Verhoeff Dr",,35.395310,-80.836120,
49861,"Old Statesville Rd & Verhoeff Dr",,35.395072,-80.836115,
49910,"Research Drive @ 9700",,35.318841,-80.768194,
49911,"Research Dr @ 6925",,35.319034,-80.766762,
49912,"Research Dr @ 9500",,35.322009,-80.764182,
49913,"Research Dr @ 9501",,35.321785,-80.764160,
49920,"Mt Holly-Huntersville Rd & Mountain Aire Cir",,35.315109,-80.964234,
49921,"Mt Holly-Huntersville Rd & Harwood Ln",,35.315141,-80.964479,
49928,"IBM Dr & Vinoy Bv",,35.302502,-80.769492,
49929,"IBM Dr @ Vance HS",,35.302300,-80.769315,
49930,"IBM Dr @ Innovation Park",,35.304741,-80.763672,
49940,"University East Dr & WT Harris Blvd",,35.286448,-80.728225,
49950,"Ridge Rd Park and Ride",,35.372606,-80.786828,
49955,"Craven Thomas Rd & Benfield Rd",,35.369778,-80.788100,
49990,"Dixie River Rd & Steele Creek Rd",,35.163050,-80.970456,
49991,"Dixie River Rd & Trojan Dr",,35.164069,-80.972051,
51006,"CPCC CityLynx",,35.217582,-80.831506,
51007,"CPCC CityLynx",,35.217414,-80.831112,
52000,"Outlets Bv & Designer Dr",,35.170452,-80.972855,
52020,"Shopton Rd & Robbie Cir",,35.172667,-80.961999,
52030,"Steele Creek Rd & Dixie River Rd",,35.161956,-80.970498,
52031,"Steele Creek Rd & Dixie River Rd",,35.161789,-80.970136,
52040,"Steele Creek Rd & Brown Grier Rd",,35.154494,-80.970176,
52060,"Steele Creek Rd & Branch Bend Ln",,35.145210,-80.972983,
52070,"Steele Creek Rd & Steele Meadow Rd",,35.142366,-80.974643,
52080,"Westlake Dr @ 10124",,35.141948,-80.971890,
52090,"Westlake Dr & Display Dr",,35.140941,-80.967098,
52100,"Westlake Dr & Turtle Creek Ln",,35.137058,-80.970681,
52110,"Westinghouse Commons Dr @ 3805",,35.136319,-80.973506,
52120,"Westinghouse Bv & Goodrich Dr",,35.132666,-80.966655,
52130,"Westinghouse Bv & Fruehauf Dr",,35.132506,-80.959036,
52190,"Main St & Eugenia St",,35.494742,-80.853368,
52191,"Main St & Eugenia St",,35.495087,-80.853163,
52199,"Main St & Walnut St",,35.496972,-80.851119,
52220,"Tuckaseegee Rd & Jay St",,35.236569,-80.869779,
52221,"Tuckaseegee Rd & Jay St",,35.236676,-80.870461,
52250,"Walker Branch Dr & Steele Creek Rd",,35.098974,-80.986804,
52251,"Walker Branch Dr & Steele Creek Rd",,35.098867,-80.986835,
52270,"Tryon St & Nevada Bv",,35.123734,-80.945335,
52271,"S Tryon St & Nevada Bv",,35.123975,-80.944711,
52290,"Idlewild Rd & Oak Dr",,35.174685,-80.708138,
52400,"Freedom Dr & Eagles Landing Dr",,35.265795,-80.927541,
52420,"Tryon St & Mother Theresa Villas",,35.114193,-80.965656,
52421,"Tryon St & South Point Bv",,35.115986,-80.960117,
52429,"Old Mt Holly Rd & Toddville Rd",,35.281232,-80.914223,
52430,"Old Mt Holly Rd & Tank Farm Rd",,35.280524,-80.923933,
52440,"Freedom Dr & Old Little Rock Rd",,35.274220,-80.936336,
52450,"S Tryon St & Rivergate Py",,35.103545,-80.986982,
52460,"Steele Creek Rd & S Tryon St",,35.101729,-80.988466,
52462,"Tryon St & Steele Creek Rd",,35.102799,-80.988084,
52470,"Old Concord Rd & N Tryon St",,35.262563,-80.769562,
52472,"Orr Rd & Pecan Grove Mhp Dr",,35.264866,-80.766547,
52474,"Orr Rd & Old Concord Rd",,35.263544,-80.763880,
52478,"Old Mt Holly Rd @ Post Office",,35.278617,-80.930162,
52480,"Old Mt Holly Rd & Tom Sadler Rd",,35.279226,-80.935587,
52490,"Carowinds Public Entrance",,35.105788,-80.936907,
52492,"Carowinds Employee Entrance",,35.103110,-80.945590,
52494,"Carowinds Park and Ride @ Cabelas Drive",,35.096857,-80.934811,
52511,"Old Mt Holly Rd & West Todd Ln",,35.280650,-80.904174,
52512,"Old Mt Holly Rd & East Todd Ln",,35.280292,-80.903182,
52513,"Old Mt Holly Rd & East Todd Ln",,35.280379,-80.902951,
52600,"North Community House Rd & Johnston Rd",,35.070062,-80.842255,
52604,"North Community House Rd & Endhaven Ln",,35.067916,-80.839165,
52612,"North Community House Rd @ 11605",,35.059449,-80.837431,
52613,"North Community House Rd & Ballantyne Commons Pkwy",,35.055841,-80.835823,
52640,"VA Hospital Outbound",,35.198281,-80.913042,
52700,"Providence Rd & Kuykendall Rd",,35.078870,-80.772051,
52701,"Providence Rd & Kuykendall Rd",,35.079828,-80.772329,
52720,"Old Steele Creek Rd & Willow St",,35.218144,-80.904574,
52721,"Old Steele Creek Rd & Willow St",,35.218177,-80.904703,
52740,"S Tryon St & Tyvola Rd",,35.168495,-80.906601,
52750,"Freedom Dr & Browns Ave",,35.252770,-80.901617,
52751,"Freedom & Browns Ave",,35.252828,-80.902184,
52760,"Tryon St & Shopton Rd",,35.162816,-80.915696,
52770,"Tryon & Shopton",,35.162484,-80.915953,
52780,"Brookshire & Hovis",,35.279845,-80.896527,
52790,"Carowinds Blvd & Lakemont Blvd",,35.095599,-80.937693,
52800,"Carowinds Blvd & Avenue of the Carolinas",,35.096506,-80.939023,
52830,"Julian Clark & Professional Center",,35.398596,-80.867366,
59460,"Cascade Pointe Blvd & W Tyvola Rd",,35.196909,-80.915075,
59470,"W Tyvola Rd & Cascade Pointe Blvd",,35.196739,-80.916407,
59480,"Technology Dr & Overland Park",,35.317668,-80.770186,
59490,"Amazon Distribution Center",,35.243262,-80.997824,
59500,"Cornelius Park & Ride",,35.480211,-80.882614,
59510,"Remount & Barringer",,35.214075,-80.878439,
59520,"Bellhaven Blvd & Brookshire Blvd",,35.298170,-80.922322,
59530,"Bellhaven Blvd & Brookshire Blvd",,35.298139,-80.922716,
59550,"Gilead & Old Statesville",,35.410869,-80.843735,
59570,"Tryon St & Griffith St",,35.201747,-80.872796,
59571,"Tryon St & Griffith St",,35.201639,-80.872599,
59580,"Johnson & Wales Way & 4th St",,35.233147,-80.852583,
59581,"Johnson & Wales Way @ Doubletree",,35.233590,-80.852415,
59590,"4th St & Cedar St",,35.231797,-80.850783,
59591,"4th St & Cedar St",,35.231507,-80.850143,
59600,"Executive St @ McLoed Center",,35.237485,-80.907710,
59610,"Statesville Rd & Rich Hatchet Rd",,35.436623,-80.865414,
59660,"4th St & Graham St",,35.229382,-80.847612,
59690,"Statesville Rd & Richfield Ln",,35.303011,-80.839963,
59700,"Statesville Rd & Richfield Ln",,35.302985,-80.839661,
59710,"Statesville Rd & Sunstone Dr",,35.299566,-80.840053,
59720,"Statesville Rd & Sunstone Dr",,35.299557,-80.839751,
59730,"Statesville Rd & Suntrace Way",,35.295942,-80.839636,
59740,"Statesville Rd & Suntrace Way",,35.296209,-80.839440,
59750,"Statesville Rd & Milhaven Ln",,35.292641,-80.838264,
59760,"Statesville Rd & Lake Rd",,35.292653,-80.837986,
59770,"Statesville Rd & Oakwood Dr",,35.286901,-80.836381,
59771,"Statesville Rd & Winslow Dr",,35.286995,-80.836149,
59780,"Cindy Ln & Murray St",,35.284344,-80.837956,
59781,"Cindy Ln & Murray St",,35.284206,-80.837954,
59790,"Cindy Ln & Juniper Dr",,35.284664,-80.847348,
59791,"Cindy Ln & Juniper Dr",,35.284525,-80.847346,
59800,"Cindy Ln & Cindy Park Dr",,35.283326,-80.854491,
59801,"Cindy Ln & Cindy Park Dr",,35.283156,-80.854763,
59820,"Craighead Rd and Graham St",,35.269844,-80.813239,
59821,"Craighead Rd and Graham St",,35.270018,-80.813218,
59840,"Graham St & Norris Ave",,35.254472,-80.824513,
59841,"Graham St & Norris Ave",,35.255691,-80.823817,
59850,"Milton Rd & Belle Plaine Dr",,35.243724,-80.751595,
59851,"Milton Rd & Belle Plaine Dr",,35.243670,-80.751862,
59860,"The Plaza & Matheson Ave",,35.238598,-80.799216,
59861,"The Plaza & Shamrock Dr",,35.238959,-80.798588,
59862,"The Plaza & Murdock",,35.240391,-80.797205,
59870,"The Plaza & 36th St",,35.241489,-80.796364,
59871,"The Plaza & 35th St",,35.240161,-80.797627,
59880,"11th St & Davidson St",,35.228363,-80.830741,
59900,"30th St & Tryon St",,35.249075,-80.816232,
59901,"30th St & Tryon St",,35.249262,-80.816236,
59910,"Benfield Rd & Prosperity Crossing Dr",,35.367172,-80.789045,
59911,"Benfield Rd & Prosperity Crossing Dr",,35.366865,-80.789139,
60000,"Caldwell St & 9th St",,35.227287,-80.833798,
60010,"Church St & 11th St",,35.233569,-80.836485,
60011,"Church St & Tryon St",,35.234418,-80.834755,
60020,"Church St & 6th St",,35.229836,-80.841826,
60030,"Claude Freeman @ Greenway",,35.331277,-80.760355,
60040,"Craighead Rd & Sofley Rd",,35.263417,-80.802278,
60041,"Craighead Rd & Sofley Rd",,35.263614,-80.802718,
60050,"Dalecrest Dr & Cedarhurst Dr",,35.278257,-80.812024,
60051,"Dalecrest Dr & Cedarhurst Dr",,35.278251,-80.812426,
60059,"David Taylor & Research Drive",,35.319727,-80.757760,
60060,"David Taylor Dr @ 9528",,35.320632,-80.755732,
60070,"David Taylor @ Electrolux",,35.328807,-80.762347,
60080,"Fairview @ 4705",,35.147670,-80.828895,
60090,"Fairview Rd & Cameron Valley Pkwy",,35.146484,-80.824787,
60091,"Fairview Rd & Cameron Valley Pkwy",,35.147143,-80.826140,
60100,"Fairview Rd & Simsbury Rd",,35.147503,-80.808950,
60101,"Fairview Rd & Simsbury Rd",,35.147709,-80.808787,
60110,"Hambright Rd & Pacemaker Ln",,35.382351,-80.878290,
60120,"John Kirk @ Rec Fields",,35.313143,-80.723989,
60130,"JW Clay Station Bay",,35.311231,-80.746008,
60140,"Kenton Cir & West Kenton Dr",,35.444844,-80.890358,
60141,"Kenton Cir & West Kenton Dr",,35.444791,-80.890222,
60150,"Mallard Creek Church @ 2182",,35.338096,-80.760435,
60160,"Mallard Creek Church & Alexander Village",,35.334194,-80.750927,
60161,"Mallard Creek Church & Legranger",,35.333559,-80.748868,
60170,"Mallard Creek Church & Berkeley Place",,35.327464,-80.737403,
60171,"Mallard Creek Church Rd & Pinnacle Dr",,35.328601,-80.738031,
60180,"Mallard Creek Church Rd  & Mine Shaft Ln",,35.312070,-80.720010,
60190,"Mallard Creek Church Rd & Senator Royall Dr",,35.335666,-80.754648,
60200,"Mallard Creek Church Rd  & Crescent View Dr",,35.342364,-80.765324,
60201,"Mallard Creek Church Rd & Crescent View Dr",,35.342482,-80.765729,
60210,"Mallard Creek Church Rd  & Galloway Rd",,35.343965,-80.762742,
60211,"Mallard Creek Church Rd  & Galloway Rd",,35.344848,-80.761789,
60212,"Mallard Creek Rd & Breezewood",,35.358407,-80.753988,
60213,"Mallard Creek Rd & Breezewood",,35.358197,-80.754058,
60220,"McCoy Rd & Toronto Pl",,35.387320,-80.881302,
60221,"McCoy Rd & Toronto Pl",,35.387027,-80.881361,
60230,"Old Concord Station Bay",,35.260672,-80.771858,
60240,"Old Statesville & Alexandriana Rd",,35.371600,-80.832188,
60241,"Old Statesville & Alexandriana Rd",,35.371872,-80.832685,
60250,"The Plaza & Duncan Ave",,35.235264,-80.804770,
60260,"Statesville Rd & Sunset Rd",,35.308344,-80.839312,
60270,"Stumptown Dr & Statesville Rd",,35.422310,-80.860778,
60280,"Sugar Creek Station Bay",,35.251817,-80.793596,
60290,"Tryon St & Owen Blvd",,35.274595,-80.766736,
60291,"Tryon St & Owen Blvd",,35.274438,-80.767202,
60300,"Tryon St & Tom Hunter Rd",,35.277551,-80.766096,
60310,"UCB Station Bay",,35.287675,-80.762134,
60311,"Tryon St & Periwinkle Hill",,35.286835,-80.761304,
60340,"Metrolina Greenhouses",,35.421057,-80.777043,
60344,"W Sugar Creek Rd @ Food Lion",,35.335981,-80.797261,
60345,"David Cox & Newfane",,35.338275,-80.801957,
60346,"David Cox & Redbridge Trail",,35.338861,-80.805819,
60347,"David Cox & Avonlea",,35.338926,-80.809670,
60348,"Davis Lake & Harris Woods",,35.336999,-80.812661,
60349,"Davis Lake & University Station",,35.334715,-80.812232,
60350,"Old Statesville & Twin",,35.332335,-80.825804,
60351,"Old Statesville & Laborde",,35.328773,-80.826351,
60352,"Old Statesville & Ratcliff",,35.325260,-80.826899,
60353,"Old Statesville & Henderson Cir",,35.318663,-80.830370,
60354,"Old Statesville & Henderson Cir",,35.322077,-80.827732,
60355,"Old Statesville & Gibbon",,35.315395,-80.833588,
60356,"Old Statesville Rd @ Davita Dialysis",,35.313659,-80.835230,
60357,"Old Statesville & Spring Trace",,35.312740,-80.836143,
60358,"Old Statesville & Oak Dr",,35.319562,-80.829300,
60359,"Old Statesville & Pete Brown",,35.322151,-80.827470,
60360,"Old Statesville & Henderson",,35.324763,-80.826852,
60361,"Old Statesville & LaBorde",,35.328709,-80.826241,
60362,"Old Statesville & Twin",,35.332303,-80.825673,
60363,"W Sugar Creek & Waterford Hills",,35.333852,-80.798873,
60364,"Lawn Market & Lovers Lawn",,35.480486,-80.855688,
60365,"Washam Potts & Westmoreland",,35.463913,-80.866510,
60366,"Washam Potts & Ruffner",,35.467017,-80.863554,
60367,"Washam Potts & Sherril",,35.473646,-80.857163,
60368,"Main & Smith",,35.476249,-80.854479,
60369,"Main & Smith",,35.476283,-80.854680,
60370,"Washam Potts & Shevington",,35.473694,-80.857333,
60371,"Washam Potts & Heartland",,35.472186,-80.858553,
60372,"Washam Potts and Oakbranch",,35.466556,-80.864308,
60373,"Washam Potts & Westmoreland",,35.463851,-80.866862,
60374,"Roxborough Rd & Morrison",,35.155598,-80.830326,
60375,"Roxborough Rd & Morrison",,35.155402,-80.830241,
60376,"Colony & Clarendon",,35.164181,-80.829030,
60377,"Colony & Wheelock",,35.163431,-80.828189,
60378,"Colony & Wickersham",,35.159957,-80.827825,
60379,"Colony & Richardson",,35.160127,-80.827639,
60382,"Steele Creek Rd & Brown Grier Rd",,35.154707,-80.970007,
60383,"Steele Creek Rd & Riverdale Dr",,35.158331,-80.970452,
60384,"Steele Creek Rd & Riverdale Rd",,35.156878,-80.970480,
60385,"Steele Creek Rd & Shopton Rd",,35.159593,-80.970848,
60386,"Dixie River Rd & New Fashion Rd",,35.167300,-80.973273,
60387,"Brown Grier Rd & Cedar Hill Dr",,35.153751,-80.966741,
60388,"Waverly Park and Ride",,35.051062,-80.767818,
60393,"36th St & Ritch",,35.251750,-80.807413,
60394,"36th St & Benard",,35.251529,-80.807492,
60397,"36th Street Station",,35.248575,-80.805485,
60398,"36th Street Station",,35.249106,-80.805830,
60420,"Trade St & Alexander St",,35.222386,-80.837522,
60430,"Elizabeth Ave & McDowell St",,35.220055,-80.834829,
60440,"Elizabeth Ave & McDowell St",,35.220155,-80.834705,
60480,"Waverly Park and Ride",,35.049622,-80.768194,
60530,"Industrial Dr @ Amazon",,35.241711,-80.965182,
place_36thST,"36th St Station",,35.250276,-80.806647,
place_BFDHLT,"Rosa Parks Place CTC",,35.272793,-80.857583,
place_CONCRL,"Commercial Blvd.",,35.124389,-80.935178,
place_E/WSTS,"LYNX East/West Blvd Station",,35.211757,-80.857712,
place_EASTLD,"Eastland CTC",,35.207835,-80.752893,
place_EDECK1,"East Deck 1 @ Mary Alexander Rd.",,35.304948,-80.728243,
place_FREEDM,"Freedom / Ashley",,35.244519,-80.894299,
place_Garage,"CTS Garage",,35.229344,-80.829529,
place_GATWY,"Gateway on Trade",,35.231273,-80.847804,
place_INTHOV,"Interurban & Hovis",,35.263649,-80.897838,
place_JWCPNR,"JW Clay Park and Ride",,35.310185,-80.745751,
place_MDL4TH,"4th & McDowell",,35.221278,-80.838247,
place_RIVERG,"Rivergate Shopping Center",,35.100956,-80.985332,
place_TRANCT,"Charlotte Transportation Center",,35.224463,-80.841077,
place_TRNHRS,"Tryon & WT Harris",,35.305764,-80.749722,
place_TRYHRM,"S. Tryon & Herman",,35.198884,-80.874878,
place_WILASH,"Wilkinson & Ashley",,35.224818,-80.892244,
place_WSTBKV,"New Renaissance & Burnette",,35.207128,-80.919931,
70001,"Belmont",,35.252635,-81.035247,
70002,"Sam Wilson",,35.241230,-80.982694,
70003,"I - 485",,35.239099,-80.965646,
70004,"Airport",,35.235497,-80.943591,
70005,"Stafford",,35.232586,-80.924809,
70006,"Morris Field",,35.224218,-80.911283,
70007,"Ashley",,35.222831,-80.891714,
70008,"Remount",,35.222751,-80.883284,
70009,"Suttle",,35.222609,-80.872851,
70010,"Morehead",,35.225753,-80.855834,
70011,"Charlotte Gateway Station",,35.230993,-80.848434,
70012,"Graham",,35.235334,-80.841902,
70013,"11th St / Blue Line",,35.230811,-80.833476,
70014,"Central",,35.220884,-80.826317,
70015,"Pecan",,35.218080,-80.814803,
70016,"Morningside",,35.214126,-80.804647,
70017,"Coliseum Ovens",,35.203723,-80.796084,
70018,"Amity Gardens",,35.199685,-80.780284,
70019,"Sharon Amity",,35.195731,-80.768207,
70020,"Conference",,35.182234,-80.756073,
70021,"Village Lake",,35.161704,-80.747466,
70022,"McAlpine",,35.150546,-80.746187,
70023,"Galleria",,35.134454,-80.736416,
70024,"Matthews Township Parkway",,35.126357,-80.728255,
70025,"Downtown Matthews",,35.118021,-80.719896,
70026,"Sportsplex",,35.115467,-80.704587,
70027,"CPCC Levine",,35.103444,-80.697313,
70028,"Stallings",,35.098764,-80.677190,
70029,"Indian Trail",,35.084871,-80.670725,
