stop_id,stop_name,stop_desc,stop_lat,stop_lon,zone_id
00001,"7th St Station",,35.227375,-80.838088,
00002,"CTC Station",,35.225336,-80.840975,
00003,"3rd/ Convention Center Station",,35.223631,-80.843237,
00004,"Stonewall Station",,35.221319,-80.847066,
00005,"Carson Station",,35.218822,-80.850947,
00006,"Bland Station",,35.215787,-80.855346,
00007,"East/ West Station",,35.212117,-80.859140,
00008,"New Bern Station",,35.199887,-80.869042,
00009,"Scaleybark Station",,35.190842,-80.875075,
00010,"Woodlawn Station",,35.175789,-80.879063,
00011,"Tyvola Station",,35.162948,-80.877570,
00012,"Archdale Station",,35.152897,-80.877485,
00013,"Arrowood Station",,35.135606,-80.876364,
00014,"Sharon Rd West Station",,35.119450,-80.881962,
00015,"I-485 Station",,35.107087,-80.882925,
00016,"9th Street Station",,35.229656,-80.835022,
00040,"12th St & Davidson St",,35.229429,-80.829693,
00081,"Parkwood Station",,35.236921,-80.823290,
00082,"25th St Station",,35.241703,-80.817147,
00083,"36th St Station",,35.249085,-80.806364,
00084,"Sugar Creek Station",,35.251423,-80.792853,
00085,"Old Concord Road Station",,35.259934,-80.772790,
00086,"Tom Hunter Station",,35.277951,-80.766283,
00087,"University City Blvd Station",,35.286787,-80.760864,
00088,"McCullough Station",,35.301124,-80.752875,
00089,"JW Clay Blvd Station",,35.310742,-80.745189,
00090,"UNC Charlotte Station",,35.312136,-80.733749,
00120,"Airport Dr & Stonewall Jackson Home Dr",,35.204791,-80.927950,
00126,"Airport Dr & Ashley Cir",,35.207940,-80.929098,
00127,"Airport Dr & Wilson Air Center Entrance",,35.208967,-80.928956,
00140,"Airport Dr & Sentry Post Rd",,35.204702,-80.927995,
00160,"Central Ave & Reddman Rd",,35.205480,-80.750199,
00170,"Albemarle Rd & Jenkins Dr",,35.203334,-80.743471,
00180,"Albemarle Rd & Executive Center Dr",,35.203106,-80.743111,
00183,"Wachovia CIC -Entrance 1A",,35.313753,-80.772557,
00200,"Graham St & Equipment Dr",,35.279671,-80.806609,
00210,"Albemarle Rd & Farm Pond Ln",,35.203087,-80.737700,
00230,"Albemarle Rd & Winterhaven Dr",,35.202746,-80.734891,
00240,"Albemarle Rd & Winterhaven Dr",,35.202986,-80.735569,
00250,"Albemarle Rd & Regal Oaks Dr",,35.202501,-80.731293,
00260,"Albemarle Rd & Regal Oaks Dr",,35.202699,-80.731277,
00270,"Albemarle Rd & WT Harris Blvd",,35.202460,-80.728142,
00280,"Albemarle Rd & WT Harris Blvd",,35.202292,-80.728607,
00285,"Albemarle Rd & Lawyers Rd Park and Ride",,35.203980,-80.724266,
00300,"Albemarle Rd & Lake Forest Rd East",,35.204949,-80.718297,
00320,"Albemarle Rd & Lynton Blvd",,35.207948,-80.708610,
00330,"Albemarle Rd & Olde Savannah Rd",,35.210402,-80.699484,
00340,"Albemarle Rd & Dwightware Blvd",,35.211493,-80.690836,
00360,"Alleghany St @ 1335",,35.237755,-80.891235,
00400,"Alleghany St @ Phillip Berry Academy",,35.237786,-80.891189,
00410,"Ashley Rd & Alleghany St",,35.240269,-80.897239,
00520,"Amay James Ave & Caronia St",,35.206802,-80.901007,
00525,"Amay James Ave @ 3133",,35.205617,-80.900635,
00550,"Amay James Ave & West Blvd",,35.210633,-80.901671,
00560,"Amay James Ave @ 2948",,35.209405,-80.901453,
00570,"Amay James Ave @ 3006",,35.208606,-80.901313,
00575,"Amay James Ave @ across 3133",,35.205524,-80.900754,
00580,"Anderson St & Tappan Pl",,35.243380,-80.793453,
00590,"Anderson St & The Plaza",,35.243322,-80.793288,
00600,"Anderson St & Byrnes St",,35.242507,-80.791890,
00610,"Anderson St & Hampshire Pl",,35.242188,-80.790965,
00620,"Anderson St & Hampshire Pl",,35.242201,-80.790677,
00630,"Anderson St & Eastwood Dr",,35.242055,-80.789029,
00640,"Anderson St & Eastwood Dr",,35.241999,-80.789220,
00670,"Arboretum Center Dr & Providence Rd",,35.097796,-80.779937,
00720,"Arrowhead Dr & Countryside Dr",,35.271372,-80.769666,
00750,"Arrowhead Dr & Elgywood Ln",,35.271276,-80.771512,
00760,"Arrowood Rd & Windsong Dr",,35.134176,-80.899621,
00770,"Arrowood Rd & Forrest Point Blvd",,35.135747,-80.903040,
00790,"Arrowood Rd & Arrowpoint Blvd",,35.140134,-80.912853,
00795,"Arrowood Rd & Microsoft Way",,35.142829,-80.918684,
00810,"Arrowood Rd & Royal Point Dr",,35.145040,-80.922727,
00930,"Arrowood Rd & Fawnbrook Ln",,35.134557,-80.900202,
00960,"Arrowood Rd & Forest Point Blvd",,35.135972,-80.903219,
01000,"Arrowood Rd & Red Oak Blvd",,35.139226,-80.910361,
01001,"Arrowood Rd & Southern Pine Blvd",,35.139018,-80.910437,
01020,"Arrowood Rd & Arrowpoint Blvd",,35.140563,-80.913193,
01030,"Arrowood Rd & Crescent Executive Dr",,35.143127,-80.918572,
01100,"Arrowood Rd & Altacrest Pl",,35.146012,-80.924174,
01110,"Arrowood Rd & Tryon St",,35.146358,-80.925247,
01170,"Ashley Rd & Freedom Dr",,35.246262,-80.892736,
01180,"Tuckaseegee Rd & Freedom Dr",,35.246170,-80.892613,
01190,"Ashley Rd & Tuckaseegee Rd",,35.244198,-80.895512,
01200,"Ashley Rd & Freedom Dr",,35.244109,-80.895235,
01210,"Ashley Rd & Tuckaseegee Rd",,35.243698,-80.896592,
01220,"Ashley Rd & Scott Futrell Dr",,35.241083,-80.897047,
01230,"Ashley & Allegany",,35.239618,-80.897207,
01240,"Ashley Rd & Alleghany St",,35.239139,-80.897075,
01260,"Ashley & Allegany",,35.237910,-80.897147,
01270,"Ashley Rd & Alleghany St",,35.237569,-80.897293,
01290,"Ashley Rd & Bullard St",,35.235587,-80.897016,
01300,"Ashley Rd & Bullard St",,35.235597,-80.897057,
01310,"Ashley Rd & Alleghany St",,35.237879,-80.897143,
01330,"Ashley Rd & Kempton Pl",,35.233800,-80.895842,
01340,"Ashley Rd & Kempton Pl",,35.233520,-80.895778,
01350,"Ashley Rd & Meredith Ave",,35.229182,-80.892871,
01370,"Central Ave & Reddman Rd",,35.204859,-80.749735,
01380,"Ashley Rd & Greenland Ave",,35.225482,-80.890484,
01450,"Baldwin Ave & Ellison St",,35.207867,-80.834610,
01460,"Baldwin Ave & Kings Dr",,35.207263,-80.835319,
01550,"Barclay Downs Dr & Morrison Blvd",,35.156526,-80.836784,
01570,"Barclay Downs Dr & Runnymede Ln",,35.165433,-80.836011,
01600,"Barclay Downs Dr & Carnegie Blvd",,35.155397,-80.836203,
01610,"Barclay Downs Dr & Carnegie Blvd",,35.153567,-80.836001,
01630,"Bardot Dr & Milan Rd East",,35.286845,-80.871815,
01650,"Bardot Dr & Faggan Way",,35.288425,-80.870310,
01670,"Bardot Dr & Dedmon Dr",,35.289323,-80.869507,
01760,"Barclay Downs Dr & Ferncliff Rd",,35.164725,-80.836155,
01790,"Barclay Downs Dr & Morrison Blvd",,35.156302,-80.836361,
01800,"Barclay Downs Dr & Bulfinch Rd",,35.152351,-80.836465,
01990,"Barrington Dr & Somersworth Dr",,35.256969,-80.752031,
02010,"Barrington Dr & Lyndeboro Dr",,35.255050,-80.750324,
02011,"Barrington Dr & Lyndeboro Dr",,35.254959,-80.750162,
02040,"Barrington Dr & Craftsbury Dr",,35.253646,-80.749205,
02080,"Barrington Dr & The Plaza",,35.251426,-80.747446,
02100,"Barrington Dr & The Plaza",,35.250825,-80.747021,
02110,"Barrington Dr & The Plaza",,35.250577,-80.746664,
02120,"Barrington Dr & Montego Dr",,35.249663,-80.746068,
02130,"Barrington Dr & Montego Dr",,35.249458,-80.746134,
02140,"Barrington Dr & Rosecran Dr",,35.246108,-80.745168,
02150,"Barrington Dr & Markway Dr",,35.242461,-80.744671,
02170,"Barrington Dr & Markway Dr",,35.242332,-80.744454,
02180,"Barrington Dr & Delivau Dr",,35.240173,-80.743739,
02190,"Barrington Dr & Milton Rd",,35.238249,-80.743118,
02240,"Baxter St & Torrence St",,35.209344,-80.833227,
02270,"Bealer Rd & Hovis Rd",,35.269466,-80.899488,
02280,"Bealer Rd & Terminal St",,35.269235,-80.901419,
02290,"Bealer Rd & Exchange St",,35.269328,-80.904776,
02370,"Beatties Ford Rd & 5th St",,35.242893,-80.858482,
02380,"Beatties Ford Rd & 5th St",,35.242903,-80.858341,
02390,"Beatties Ford Rd & Dixon St",,35.244074,-80.857993,
02400,"Beatties Ford Rd & Dixon St",,35.244744,-80.857523,
02420,"Beatties Ford Rd & French St",,35.247258,-80.856813,
02430,"Beatties Ford Rd & Cemetery St",,35.247948,-80.856591,
02440,"Beatties Ford Rd & Cemetery St",,35.248612,-80.856663,
02470,"Beatties Ford Rd & Sanders Ave",,35.252103,-80.856120,
02480,"Beatties Ford Rd & Sanders Ave",,35.252219,-80.856223,
02500,"Beatties Ford Rd & Oaklawn Ave",,35.253317,-80.855986,
02510,"Beatties Ford Rd & Dundeen St",,35.254578,-80.855831,
02530,"Beatties Ford Rd & Celia Ave",,35.256434,-80.855726,
02540,"Beatties Ford Rd & Russell Ave",,35.256755,-80.855613,
02550,"Beatties Ford Rd & Estelle St",,35.258238,-80.855509,
02552,"Beatties Ford Rd & St Paul St",,35.257833,-80.855400,
02570,"Beatties Ford Rd & St Mark St",,35.260153,-80.855184,
02580,"Beatties Ford Rd & Hildebrand St",,35.260173,-80.855262,
02600,"Beatties Ford Rd & LaSalle St",,35.263444,-80.854696,
02610,"Beatties Ford Rd & LaSalle St",,35.263379,-80.854521,
02630,"Beatties Ford Rd & Keller Ave",,35.265622,-80.854257,
02640,"Beatties Ford Rd & Holly St",,35.266724,-80.853873,
02660,"Beatties Ford Rd & Gilbert St",,35.267716,-80.853913,
02670,"Beatties Ford Rd & Montana Dr",,35.267783,-80.854025,
02680,"Beatties Ford Rd & Rosa Parks Pl (Bay B)",,35.273669,-80.854567,
02720,"Beatties Ford Rd & B Ave",,35.275149,-80.854655,
02730,"Beatties Ford Rd & Hoskins Rd",,35.275405,-80.854969,
02740,"Beatties Ford Rd & Lynchester Pl",,35.276924,-80.855546,
02750,"Beatties Ford Rd & Lynchester Pl",,35.276908,-80.855348,
02760,"Beatties Ford Rd & Fairdale Dr",,35.278921,-80.856007,
02770,"Beatties Ford Rd & McAllister Dr",,35.280941,-80.856677,
02771,"Beatties Ford Rd & Friendship Village Pl",,35.279275,-80.855992,
02772,"Beatties Ford Rd & McAllister Dr",,35.281209,-80.856589,
02780,"Beatties Ford Rd & Cindy Ln",,35.282649,-80.857165,
02790,"Beatties Ford Rd & Griers Grove Rd",,35.283086,-80.857523,
02800,"Beatties Ford Rd @ 3640",,35.284017,-80.857695,
02810,"Beatties Ford Rd @ 3713",,35.285829,-80.858518,
02820,"Beatties Ford Rd @ 3738",,35.285816,-80.858320,
02830,"Beatties Ford Rd @ 3938",,35.288948,-80.858029,
02840,"Beatties Ford Rd & Slater Rd",,35.290864,-80.857600,
02850,"Beatties Ford Rd & Capps Hill Mine Rd",,35.289357,-80.858052,
02860,"Beatties Ford Rd & Slater Rd",,35.290855,-80.857500,
02870,"Beatties Ford Rd & Slater Springs Dr",,35.292087,-80.857092,
02880,"Beatties Ford Rd & Slater Springs Dr",,35.292152,-80.857160,
02890,"Beatties Ford Rd & Olde English Dr",,35.294609,-80.856283,
02900,"Beatties Ford Rd & Slater Ridge Dr",,35.294394,-80.856421,
02910,"Beatties Ford Rd @ 4530",,35.296916,-80.855952,
02940,"Beatties Ford Rd & Sunset Rd",,35.303645,-80.857282,
03010,"Belmont Ave & Seigle Ave",,35.228210,-80.821634,
03030,"Belmont Ave & Allen St",,35.227010,-80.820080,
03038,"Statesville Ave & Oliver St",,35.239870,-80.836543,
03130,"Berryhill Rd & Tuckaseegee Rd",,35.235981,-80.874927,
03140,"Berryhill Rd & Freedom Dr",,35.233935,-80.876033,
03150,"Berryhill Rd & Tuckaseegee Rd",,35.236248,-80.874898,
03160,"Berryhill Rd & Freedom Dr",,35.234044,-80.876096,
03180,"Billingsley Rd & Randolph Rd",,35.190485,-80.808893,
03190,"Billingsley Rd @ 431",,35.190433,-80.805735,
03200,"Billingsley Rd & Cascade Cir",,35.190676,-80.803853,
03390,"Braden Dr @ 3627",,35.287622,-80.867722,
03410,"Braden Dr & Dedmon Dr",,35.288906,-80.867889,
03590,"Bradford Dr & Key St",,35.256661,-80.897289,
03610,"Bradford Dr & Hoover St",,35.255079,-80.897561,
03670,"Brandon Forest Dr & Stradbrook Dr",,35.116294,-80.858982,
03705,"Briar Creek Rd & Creighton Dr",,35.211396,-80.792023,
03710,"Briar Creek Rd & Creighton Dr",,35.211789,-80.791713,
04220,"Canterwood Dr & Monteith Dr",,35.275243,-80.773600,
04350,"Capps Hill Mine Rd & Milan Rd",,35.291820,-80.870671,
04360,"Capps Hill Mine Rd & Firestone Dr",,35.291024,-80.869523,
04400,"Capps Hill Mine Rd & Braden Dr",,35.289415,-80.866815,
04408,"Capps Hill Mine Rd & Gold Nugget Ct",,35.289289,-80.865126,
04409,"Capps Hill Mine Rd & Gold Nugget Ct",,35.289374,-80.865181,
04410,"Capps Hill Mine Rd & Silver Ore Ln",,35.288928,-80.861973,
04420,"Capps Hill Mine Rd & Silver Ore Ln",,35.288955,-80.862216,
04440,"Capps Hill Mine Rd & Beatties Ford Rd",,35.288059,-80.859021,
04450,"Capps Hill Mine Rd & Beatties Ford Rd",,35.287984,-80.859609,
04480,"Carlyle Dr & Cartwright Pl",,35.232106,-80.898188,
04490,"Carlyle Dr & Wilson Ave",,35.231452,-80.899234,
04500,"Carlyle Dr & Bromwich Rd",,35.231353,-80.901844,
04510,"Carlyle Dr & Paisley Pl",,35.231146,-80.904362,
04520,"Carmel Rd & Carmel Park Ln",,35.147270,-80.801745,
04530,"Carmel Rd & Wandering Way Dr",,35.144708,-80.801404,
04540,"Carmel Rd & Crooked Oak Ln",,35.141426,-80.801612,
04550,"Carmel Rd & Sharon View Rd",,35.139034,-80.802824,
04560,"Carmel Rd & Thornridge Rd",,35.135303,-80.806037,
04570,"Carmel Rd & Camilla Dr",,35.133201,-80.807718,
04932,"Catawba Ave & Washam St",,35.483168,-80.864884,
04933,"Catawba Ave & Washam St",,35.483147,-80.864419,
04935,"Catawba Ave & Ferry St",,35.484074,-80.869839,
04940,"Catawba Ave & Ferry St",,35.484076,-80.869016,
04980,"Central Ave & 7th St",,35.220424,-80.828232,
04990,"Central Ave & Piedmont St",,35.221227,-80.824542,
05000,"Central Ave & Piedmont St",,35.221363,-80.824277,
05010,"Central Ave & Louise Ave",,35.221600,-80.823147,
05030,"Central Ave & Louise Ave",,35.221598,-80.822732,
05050,"Central Ave & Oakland Ave",,35.221554,-80.819975,
05060,"Central Ave & Heath Ct",,35.221789,-80.820556,
05070,"Central Ave & Hawthorne Ln",,35.221303,-80.818020,
05100,"Central Ave & Lamar Ave",,35.221060,-80.817382,
05120,"Central Ave & Clement Ave",,35.220551,-80.815041,
05130,"Central Ave & Clement Ave",,35.220678,-80.815002,
05140,"Central Ave & Pecan Ave",,35.220441,-80.813185,
05170,"Central Ave & Thomas Ave",,35.220240,-80.812446,
05180,"Central Ave & Thomas Ave",,35.220360,-80.811425,
05190,"Central Ave & Nandina St",,35.220151,-80.809574,
05200,"Central Ave & Nandina St",,35.220226,-80.808810,
05240,"Central Ave & Tippah Park Ct",,35.219667,-80.802482,
05250,"Central Ave & Iris Dr",,35.219598,-80.802655,
05270,"Central Ave & Lyon Ct",,35.219356,-80.800067,
05280,"Central Ave & Club Rd",,35.219407,-80.799650,
05310,"Central Ave & St George St",,35.218373,-80.795582,
05320,"Central Ave & Masonic Dr",,35.218653,-80.796008,
05330,"Central Ave & Eastcrest Dr",,35.217863,-80.794234,
05340,"Central Ave & Briar Creek Rd",,35.216363,-80.788066,
05350,"Central Ave & Wembley Dr",,35.217170,-80.792206,
05360,"Central Ave & Eastcrest Dr",,35.217282,-80.792283,
05370,"Central Ave & Briar Creek Rd",,35.216711,-80.789250,
05400,"Central Ave & Merry Oaks Rd",,35.216104,-80.785884,
05410,"Central Ave & Carolyn Dr",,35.215830,-80.784187,
05420,"Central Ave & Longfellow St",,35.215874,-80.782842,
05430,"Central Ave & Medford Dr",,35.215434,-80.779678,
05440,"Central Ave & Temple Ln",,35.215274,-80.777337,
05450,"Central Ave & Temple Ln",,35.215446,-80.777401,
05465,"Central Ave & Medallion Dr",,35.214989,-80.774615,
05470,"Central Ave & Kilborne Dr",,35.214282,-80.771901,
05480,"Central Ave & Sheridan Dr",,35.214632,-80.773864,
05500,"Central Ave & Norland Rd",,35.214049,-80.771654,
05510,"Central Ave & Progress Ln",,35.213542,-80.768372,
05520,"Central Ave & Progress Ln",,35.213364,-80.768311,
05540,"Central Ave & Rosehaven Dr",,35.212452,-80.763620,
05550,"Central Ave & Rosehaven Dr",,35.212341,-80.763839,
05560,"Central Ave @ 4908",,35.211522,-80.760617,
05570,"Central Ave & Winterfield Pl",,35.210720,-80.758948,
05580,"Central Ave & Winterfield Pl",,35.211078,-80.759224,
05590,"Central Ave & Sharon Amity Rd",,35.209599,-80.756430,
05630,"Central Ave @ Eastland Mall",,35.206955,-80.752690,
05650,"Centre St & Tennessee Ave",,35.261855,-80.872391,
05690,"Church St & 1st St",,35.225307,-80.848352,
05710,"Church St & 3rd St",,35.226847,-80.846066,
05730,"Cinderella Rd & Candystick Ln",,35.264696,-80.791651,
05750,"Cinderella Rd & Munsee St",,35.264510,-80.789921,
05780,"Clanton Rd & Dewitt Ln",,35.195079,-80.875263,
05790,"Clanton Rd & Tryon St",,35.196174,-80.878237,
05800,"Clanton Rd & St Vardell Ln",,35.196953,-80.880442,
05810,"Clanton Rd & St Vardell Ln",,35.197149,-80.880597,
05820,"Clanton Rd & Barringer Dr",,35.198938,-80.885516,
05850,"Clanton & Barringer",,35.199591,-80.887567,
05860,"Clanton Rd & Archer Ave",,35.200592,-80.890148,
05870,"Clanton Rd & Manchester Dr",,35.200278,-80.889458,
05900,"Clanton Rd & Fieldcrest Rd",,35.202604,-80.892927,
05910,"Clanton Rd & Fieldcrest Rd",,35.202865,-80.892773,
05940,"Clanton Rd & Sargeant Dr",,35.204544,-80.893484,
05950,"Clanton Rd & Sargeant Dr",,35.204113,-80.893096,
05970,"Clanton Rd & Caronia St",,35.207569,-80.893531,
05980,"Clanton Rd & Caronia St",,35.207869,-80.893635,
05990,"Clanton Rd & Farmer St",,35.209859,-80.893484,
06000,"Clanton Rd & Farmer St",,35.210064,-80.893355,
06005,"Clanton Rd & Pelton St",,35.195288,-80.875385,
06010,"Clanton Rd & Tryon St",,35.196356,-80.878452,
06280,"Colwick Rd & Greenwich Rd",,35.177506,-80.798312,
06290,"Colwick Rd & Sharon Amity Rd",,35.176573,-80.797355,
06310,"Commonwealth Ave & Green Oaks Ln",,35.211694,-80.798428,
06325,"The Plaza & McClintock Rd",,35.219109,-80.810740,
06326,"The Plaza & McClintock Rd",,35.219330,-80.810911,
06360,"Commonwealth Ave & Westover St",,35.216781,-80.808175,
06365,"Commonwealth Ave & Westover St",,35.216766,-80.808268,
06370,"Commonwealth Ave & Bascom St",,35.216063,-80.806940,
06380,"Commonwealth Ave & Hanover St",,35.215363,-80.805458,
06390,"Commonwealth Ave & Hanover St",,35.214794,-80.804527,
06400,"Commonwealth Ave & Lorna St",,35.214240,-80.803343,
06410,"Commonwealth Ave & Lorna St",,35.214220,-80.803426,
06420,"Commonwealth Ave & Morningside Dr",,35.212536,-80.800027,
06430,"Commonwealth Ave & Morningside Dr",,35.212659,-80.800472,
06440,"Commonwealth Ave & Rockway Dr",,35.211591,-80.798382,
06450,"Commonwealth Ave & Waterman Ave",,35.209008,-80.793507,
06460,"Commonwealth Ave & Pinecrest Ave",,35.208319,-80.791252,
06470,"Commonwealth Ave & Pinecrest Ave",,35.208277,-80.791298,
06530,"Cove Creek Dr & Barrington Dr",,35.257464,-80.751958,
06560,"Cove Creek Dr & Burleson Dr",,35.259326,-80.748436,
06561,"Cove Creek Dr & Burleson Dr",,35.259146,-80.748375,
06710,"Alleghany St & Crisman St",,35.238939,-80.887529,
06770,"Crownpoint Executive Dr & Independence Blvd",,35.143360,-80.721958,
06780,"Crownpoint Executive Dr @ 2201",,35.142492,-80.726907,
06790,"Crownpoint Executive Dr & Sardis Rd North",,35.144307,-80.728595,
06860,"Dalecrest Dr & Monmouth Dr",,35.279417,-80.814948,
06870,"Dalecrest Dr & Kenmont Dr",,35.279714,-80.815919,
06890,"Dalecrest Dr & Wynbrook Way",,35.280741,-80.818377,
06910,"Dalecrest Dr & Valeview Ln",,35.281361,-80.819864,
06920,"Dalecrest Dr & Valeview Ln",,35.281648,-80.820250,
06930,"Dalton Ave & Tryon St",,35.239639,-80.828220,
06950,"Dalton Ave & Tryon St",,35.239566,-80.828671,
06970,"Dalton Ave @ 300",,35.239617,-80.831279,
06980,"Dalton Ave @ 305",,35.239521,-80.831286,
06990,"Dalton Ave & Graham St",,35.239592,-80.834396,
07000,"Dalton Ave & Graham St",,35.239473,-80.834474,
07080,"Davidson St & Brevard St",,35.245316,-80.808806,
07320,"Dunn Ave & Heflin St",,35.203010,-80.805708,
07380,"4th St & Davidson St",,35.222016,-80.839027,
07480,"4th St & Kings Dr",,35.215738,-80.831425,
07500,"4th St & Torrence St",,35.213273,-80.827951,
07520,"4th St & Hawthorne Ln",,35.211622,-80.825667,
07540,"4th St & Hawthorne Ln",,35.211657,-80.825885,
07565,"Randolph Rd & Caswell Rd",,35.210395,-80.824276,
07570,"WT Harris Blvd & Bonlyn Dr",,35.199167,-80.726127,
07590,"Alleghany St & Ashley Rd",,35.238316,-80.895958,
07640,"WT Harris Blvd & Idlewild Rd North",,35.195205,-80.725839,
07650,"John St & Ames Rd",,35.117150,-80.724170,
07800,"Morehead St & Kenilworth Ave",,35.208874,-80.839973,
07810,"Morehead St & Kenilworth Ave",,35.208123,-80.839467,
07820,"Morehead St & Harding Pl",,35.206308,-80.837762,
07821,"Morehead St & Harding Pl",,35.206094,-80.837315,
07861,"Brevard St & 9th St",,35.228473,-80.834561,
07890,"7th St @ Carole Hoffner Center",,35.224791,-80.834331,
07900,"7th St & Alexander St",,35.223241,-80.832308,
07910,"7th St & McDowell St",,35.222983,-80.832226,
07930,"7th St & Hawthorne Ln",,35.215565,-80.821681,
07940,"7th St & Charlottetowne Ave",,35.219218,-80.827056,
07960,"7th St & Beaumont Ave",,35.217136,-80.823938,
07970,"7th St & Armory Dr",,35.216935,-80.823733,
07980,"7th St & Hawthorne Ln",,35.215499,-80.821829,
08010,"7th St & Clement Ave",,35.213439,-80.819399,
08020,"7th St & Caswell Rd",,35.212732,-80.818380,
08030,"7th St & Clarice Ave",,35.211202,-80.816519,
08040,"7th St & Clarice Ave",,35.211214,-80.816321,
08060,"7th St & Laurel Ave",,35.210161,-80.814966,
08070,"7th St & Laurel Ave",,35.210252,-80.814943,
08080,"7th St & Bascom St",,35.209018,-80.813232,
08090,"7th St & Cameron Ave",,35.209065,-80.813491,
08100,"7th St & Dotger Ave",,35.207929,-80.812425,
08110,"7th St & Dotger Ave",,35.207961,-80.812204,
08120,"7th St & 5th St",,35.206462,-80.811116,
08130,"7th St & Firefighter Pl",,35.206278,-80.810718,
08200,"Stonewall St & McDowell St",,35.215895,-80.839974,
08210,"Stonewall St & McDowell St",,35.216192,-80.839971,
08220,"3rd St & Brevard St",,35.223492,-80.842991,
08230,"3rd St & Davidson St",,35.221474,-80.840529,
08240,"3rd St @ Marshall Park",,35.220040,-80.838876,
08250,"3rd St & McDowell St",,35.218933,-80.837783,
08260,"3rd St & Kings Dr",,35.214431,-80.831634,
08280,"36th St & Alexander St",,35.246585,-80.803370,
08300,"36th St & McDowell St",,35.245333,-80.801841,
08320,"36th St & Charles Ave",,35.244290,-80.800615,
08390,"36th St & Holt St",,35.242203,-80.798134,
08420,"Trade St & Tryon St",,35.226875,-80.842620,
08430,"Trade St & College St",,35.226749,-80.842601,
08520,"Trade St & Alexander St",,35.222403,-80.837294,
08530,"Trade St & Alexander St",,35.222103,-80.837214,
08620,"East Blvd & Lyndhurst Ave",,35.209205,-80.854419,
08660,"East Blvd & Springdale Ave",,35.207729,-80.852215,
08670,"East Blvd & Lennox Ave",,35.206665,-80.851087,
08680,"East Blvd & Lennox Ave",,35.206378,-80.850410,
08720,"East Blvd & Scott Ave",,35.201094,-80.843376,
08780,"East Blvd & Garden Ter",,35.199103,-80.840611,
08820,"East Blvd & Kings Dr",,35.196174,-80.838227,
08900,"Eastway Dr @ CMC Northpark",,35.256991,-80.778174,
08920,"Eastway & Howie Circle",,35.251795,-80.780603,
08940,"Eastway Dr @ CMC Northpark",,35.256957,-80.777982,
08950,"Eastway Dr & Howie Cir",,35.251605,-80.780438,
08970,"Eastway Dr & Weldon Ave",,35.247110,-80.781298,
08980,"Eastway Dr & Commercial Ave",,35.245649,-80.780874,
08990,"Eastway Dr & Citiside Dr",,35.246737,-80.781082,
09000,"Eastway Dr & Finchley Dr",,35.243731,-80.780243,
09010,"Eastway Dr & Sugar Creek Rd",,35.244119,-80.780600,
09030,"Eastway Dr & Audrey St",,35.239162,-80.777580,
09040,"Eastway Dr & Audrey St",,35.239412,-80.777626,
09050,"Eastway Dr & Peace St",,35.240162,-80.778326,
09060,"Eastway Dr & Shamrock Dr",,35.235838,-80.775089,
09070,"Eastway Dr & Shamrock Dr",,35.235877,-80.775251,
09080,"Eastway Dr & Dunlavin Way",,35.232939,-80.774480,
09090,"Eastway Dr @ Metropolitan Community Church",,35.231043,-80.774483,
09100,"Eastway Dr @ 1908",,35.230624,-80.774594,
09110,"Eastway Dr & Kilborne Dr",,35.228920,-80.774775,
09120,"Eastway Dr & Kilborne Dr",,35.228734,-80.775075,
09140,"Eastway Dr & Sandhurst Dr",,35.226774,-80.776252,
09150,"Eastway Dr & Bently Pl",,35.225166,-80.777382,
09190,"Eastway Dr & Arnold Dr",,35.222659,-80.779116,
09200,"Eastway Dr & Bently Pl",,35.225130,-80.777532,
09220,"Eastway Dr & Burgin St",,35.219948,-80.780537,
09230,"Eastway Dr & Burgin St",,35.218365,-80.780730,
09240,"Eastway Dr & Burgin St",,35.218108,-80.780614,
09250,"Eastway Dr & Central Ave",,35.216872,-80.780590,
09270,"Eastway Dr & Sandhurst Dr",,35.227153,-80.776102,
09290,"Eastway Dr & Arnold Dr",,35.223496,-80.778675,
09310,"Eastway Dr & Arnold Dr",,35.221844,-80.779808,
09340,"Eastwood Dr & Shamrock Dr",,35.235402,-80.787305,
09350,"Eastwood Dr & Maywood Dr",,35.237030,-80.787984,
09360,"Eastwood Dr & Maywood Dr",,35.237053,-80.787945,
09380,"Eastwood Dr & Academy St",,35.239735,-80.788317,
09390,"Eastwood Dr & Academy St",,35.240520,-80.788376,
09420,"Echo Glen Rd & Bilmark Ave",,35.273650,-80.783786,
09640,"Edgewood Rd & Susan St",,35.248501,-80.899404,
09660,"Edgewood Rd & Major St",,35.249012,-80.899298,
09680,"Elgywood Ln & Blackhawk Rd",,35.273202,-80.772171,
09695,"Elgywood Ln & Canterwood Dr",,35.274811,-80.772689,
09840,"Elizabeth Ave & Hawthorne Ln",,35.213204,-80.826070,
09960,"Ellington St & Wheatley Ave",,35.193120,-80.802116,
09970,"Ellington St & Billingsley Rd",,35.191357,-80.801771,
09980,"Ellington St & Wheatley Ave",,35.192189,-80.802028,
09990,"Ellington St & Billingsley Rd",,35.191315,-80.801848,
10050,"English Dr & Sutton Dr",,35.265235,-80.862856,
10060,"English Dr & Abelwood Rd",,35.268656,-80.862301,
10110,"Erie St & LaSalle St",,35.260763,-80.845119,
10120,"Erie St & Catherine Simmons Ave",,35.262621,-80.844720,
10130,"Erie St & Catherine Simmons Ave",,35.262291,-80.844899,
10300,"Exchange St & Tarheel Rd",,35.267245,-80.905250,
10400,"Fairview Rd & Park Rd",,35.152618,-80.847785,
10410,"Fairview Rd & Wintercrest Ln",,35.151925,-80.843479,
10420,"Fairview Rd & Wintercrest Ln",,35.151739,-80.842007,
10470,"Fairview Rd & Park South Dr",,35.151344,-80.841017,
10490,"Fairview Rd & Barclay Downs Dr",,35.151065,-80.837562,
10491,"Fairview Rd & Barclay Downs Dr",,35.150904,-80.837484,
10550,"Fairview Rd & Oglukian Rd",,35.151455,-80.797896,
10850,"Fincher Blvd & Dalecrest Dr",,35.282671,-80.820936,
10860,"Fincher Blvd & Cypress Pond Dr",,35.284089,-80.820207,
10870,"Fincher Blvd & Cypress Pond Dr",,35.284524,-80.820159,
10880,"Fincher Blvd @ 3500",,35.286378,-80.820443,
10890,"Fincher Blvd @ 3501",,35.286325,-80.820475,
10900,"Fincher Blvd & Nevin Rd",,35.288278,-80.820700,
10910,"Fincher Blvd & Nevin Rd",,35.288363,-80.820762,
10920,"Lightspun Ln & Firespun Dr",,35.288988,-80.872737,
10960,"Firestone Dr & Dedmon Dr",,35.290192,-80.870214,
11015,"Huntersville Gateway Park & Ride",,35.413539,-80.857071,
11030,"Freedom Dr & Camp Greene St",,35.235437,-80.879696,
11040,"Freedom Dr & Camp Greene St",,35.235269,-80.879866,
11050,"Freedom Dr @ 2640",,35.238185,-80.883387,
11060,"Freedom Dr & Pacific St",,35.238083,-80.883582,
11070,"Freedom Dr & Ashley Rd",,35.245968,-80.894116,
11080,"Freedom Dr & Ashley Rd",,35.245901,-80.893501,
11095,"Freedom Dr & Bradford Dr",,35.249942,-80.898165,
11096,"Freedom Dr & Edgewood Rd",,35.249852,-80.898421,
11120,"Freedom Dr & Ranch Rd",,35.257183,-80.910086,
11121,"Freedom Dr & Ranch Rd",,35.257246,-80.910543,
11130,"Freedom Dr & Allenbrook Dr",,35.259095,-80.914213,
11131,"Freedom Dr & Allenbrook Dr",,35.259108,-80.914534,
11151,"Freedom Dr & Toddville Rd",,35.263094,-80.920642,
11230,"Georgetown Dr & Heatherbrooke Ave",,35.273463,-80.774831,
11250,"Georgetown Dr & Spring Garden Ln",,35.272988,-80.776885,
11330,"Graham St & 5th St",,35.231886,-80.845266,
11335,"Graham St & 7th St",,35.233115,-80.843612,
11340,"Graham St & 8th St",,35.233864,-80.842561,
11350,"Graham St & 10th St",,35.235108,-80.840867,
11390,"Green Oaks Ln & Commonwealth Ave",,35.212336,-80.797220,
11410,"Green Oaks Ln & Oak Valley Ln",,35.213059,-80.795759,
11420,"Green Oaks Ln & Oak Valley Ln",,35.213133,-80.795945,
11430,"Green Oaks Ln & Eastcrest Dr",,35.212761,-80.793037,
11440,"Green Oaks Ln & Briar Creek Rd",,35.212669,-80.793105,
11460,"Remount Rd & Wilkinson Blvd",,35.224663,-80.883313,
11461,"Remount Rd & Wilkinson Blvd",,35.225022,-80.883217,
11465,"Remount Rd & West Blvd",,35.216869,-80.883671,
11466,"Remount Rd & West Blvd",,35.216842,-80.883874,
11490,"Greenland Ave & Ashley Rd",,35.226428,-80.890127,
11500,"Greenwich Rd & Randolph Rd",,35.178490,-80.800315,
11540,"Griffith St & Watson St",,35.502557,-80.849951,
11541,"Griffith St & Watson St",,35.502661,-80.850202,
11600,"Hamlin Park Dr & Brandon Forest Dr",,35.115574,-80.858066,
11620,"WT Harris Blvd & Tantilla Cir",,35.230622,-80.728990,
11621,"WT Harris Blvd & Robinson Church Rd",,35.230418,-80.728415,
11630,"WT Harris Blvd & Williams Rd",,35.233792,-80.732602,
11631,"WT Harris Blvd & Grove Park Blvd",,35.233264,-80.731619,
11650,"WT Harris Blvd & Robinson Church Rd",,35.231471,-80.729943,
11660,"WT Harris Blvd @ 6670",,35.229460,-80.727790,
11670,"WT Harris Blvd & Kimmerly Glen Ln",,35.225955,-80.726135,
11671,"WT Harris Blvd & Kimmerly Glen Ln",,35.226017,-80.726044,
11680,"WT Harris Blvd & Hickory Grove Rd",,35.223978,-80.725433,
11690,"WT Harris Blvd @ 5820",,35.235395,-80.734357,
11691,"WT Harris Blvd & Rosecroft Dr",,35.235162,-80.733865,
11710,"Harrisburg Rd & Pence Rd",,35.213725,-80.687087,
11730,"Hateras Ave & Kennesaw Dr",,35.259915,-80.846258,
11740,"Hateras Ave & Erie St",,35.259689,-80.845468,
11860,"Hebron St & Nations Ford Rd",,35.129440,-80.894159,
11880,"Hickory Grove Rd & Sharon Amity Rd",,35.224248,-80.748380,
11890,"Hickory Grove Rd & Shamrock Dr",,35.223963,-80.745427,
11895,"Hickory Grove Rd & Shamrock Dr",,35.223804,-80.745461,
11900,"Hickory Grove Rd & Valleyview Dr",,35.223938,-80.742492,
11905,"Hickory Grove Rd & Valleyview Dr",,35.223780,-80.741907,
11910,"Hickory Grove Rd & Craigwood Dr",,35.223445,-80.738316,
11915,"Hickory Grove Rd & Craigwood Dr",,35.223294,-80.738239,
11920,"Hickory Grove Rd & Gaynelle Dr",,35.223102,-80.735217,
11930,"Hickory Grove Rd & Martha's Ridge Dr",,35.222953,-80.732552,
11935,"Hickory Grove Rd & Martha's Ridge Dr",,35.222809,-80.732570,
11940,"Hickory Grove Rd & WT Harris Blvd",,35.222708,-80.726415,
11950,"Hickory Grove Rd & Lawrence Orr Rd",,35.222757,-80.728207,
11955,"Hickory Grove Rd & WT Harris Blvd",,35.222525,-80.726745,
11990,"Mint Hill Festival Shopping Ctr @ Hwy 51",,35.172153,-80.657417,
12000,"Hoskins Rd & Rozzelles Ferry Rd",,35.266252,-80.883014,
12010,"Hoskins Rd & Rozzelles Ferry Rd",,35.265728,-80.883672,
12025,"Hoskins Rd & Brookshire Blvd",,35.266792,-80.881200,
12030,"Hoskins Rd & Brookshire Blvd",,35.266807,-80.881455,
12050,"Hoskins Rd & Hoskins Avenue Dr",,35.262954,-80.888529,
12080,"Hoskins Rd & Chesapeake Dr",,35.272833,-80.874400,
12100,"Hoskins Rd & Chesapeake Dr",,35.274714,-80.873451,
12105,"Hoskins Rd & Chesapeake Dr",,35.274815,-80.873293,
12120,"Hoskins Rd & Pompano Rd",,35.276466,-80.871035,
12125,"Hoskins Rd & Northpointe Industrial Bv",,35.276251,-80.869276,
12130,"Hoskins Rd & Northpointe Industrial Blvd",,35.276227,-80.868205,
12150,"Hoskins Rd & Gossett Ave",,35.265025,-80.885036,
12170,"Hoskins Rd @ 314",,35.263727,-80.887228,
12190,"Hoskins Rd @ 229",,35.263338,-80.887662,
12210,"Hoskins Rd & Morgan St",,35.262420,-80.889288,
12230,"Hovis Rd & Hoskins Rd",,35.262206,-80.891026,
12240,"Hovis Rd & Wildwood Ave",,35.262633,-80.893773,
12250,"Hovis Rd & Wildwood Ave",,35.262561,-80.893206,
12270,"Hovis Rd & Hoskins Rd",,35.262265,-80.891084,
12271,"Interurban Ave & Hovis Rd",,35.262858,-80.899320,
12275,"Interurban Ave & Willard St",,35.261756,-80.901692,
12320,"Hovis Rd & Bradford Dr",,35.262723,-80.896009,
12321,"Hovis Rd & Bradford Dr",,35.262592,-80.895333,
12330,"Hovis Rd & Tarheel Rd",,35.265871,-80.898419,
12340,"Hovis Rd & Tarheel Rd",,35.265727,-80.898342,
12350,"Hovis Rd & Gulf Dr",,35.268302,-80.898703,
12360,"Hovis Rd & Salem Church Rd",,35.277281,-80.895336,
12361,"Brookshire & Hovis",,35.278991,-80.894758,
12370,"Scott Futrell Dr & Billy Graham Pkwy",,35.237622,-80.921121,
12390,"Scott Futrell Dr @ 3709",,35.240321,-80.927988,
12400,"Scott Futrell Dr & Stafford Dr",,35.241248,-80.931601,
12420,"Scott Futrell Dr & Little Rock Rd",,35.237155,-80.939509,
12430,"Scott Futrell Dr @ 4101",,35.239605,-80.937551,
12490,"Montana Dr @ 532",,35.265916,-80.873849,
12580,"Idlewild Rd North & Lawyers Rd",,35.198759,-80.721548,
12630,"Idlewild Rd & Cedars East Ct",,35.183782,-80.751384,
12640,"Idlewild Rd & Dion Ave",,35.184796,-80.748943,
12650,"Idlewild Rd & Cedarwild Rd",,35.185979,-80.746779,
12660,"Idlewild Rd @ 7007",,35.186367,-80.745190,
12670,"Idlewild Rd & Boston Ave",,35.186002,-80.741748,
12680,"Idlewild Rd & Ivydale Dr",,35.185754,-80.739128,
12690,"Idlewild Rd & Idlebrook Dr",,35.187422,-80.735110,
12700,"Idlewild Rd & WT Harris Blvd",,35.186456,-80.731160,
12710,"Idlewild Rd & New Hampshire Dr",,35.182829,-80.726961,
12730,"Idlewild Rd North & WT Harris Blvd",,35.195392,-80.724319,
12750,"Idlewild Rd North @ Snow Ln",,35.197622,-80.722478,
12890,"Independence Blvd & Charleston Dr",,35.193407,-80.765326,
12910,"Independence Blvd & Farmingdale Dr",,35.191611,-80.763215,
12950,"Independence Blvd @ 5401",,35.185152,-80.757543,
12960,"Independence Blvd & Idlewild Rd",,35.182822,-80.755464,
12980,"Independence Blvd @ 6052 (KFC)",,35.178071,-80.751600,
12990,"Independence Blvd & Dion Ave",,35.176726,-80.749998,
13000,"Independence Blvd & Wallace Ln",,35.176292,-80.750005,
13010,"Independence Blvd @ 6248",,35.174694,-80.748538,
13020,"Independence Blvd @ 6335",,35.174358,-80.747842,
13030,"Independence Blvd & Wallace Rd",,35.169687,-80.744358,
13040,"Independence Blvd @ 6701",,35.169731,-80.744024,
13060,"Independence Blvd @ 7016",,35.165965,-80.742140,
13070,"Independence Blvd & Village Lake Dr",,35.162486,-80.739124,
13080,"Independence Blvd & Village Lake Dr",,35.161451,-80.738469,
13090,"Independence Blvd & Krefeld Dr",,35.158131,-80.734427,
13095,"Independence Blvd @ Woodway Point Apts",,35.156329,-80.732454,
13100,"Independence Blvd @ Cross Creek Apts",,35.154745,-80.730861,
13110,"Independence Blvd & Calibre Crossing Dr",,35.154105,-80.730643,
13115,"Independence Blvd & Sardis Rd North",,35.147816,-80.725046,
13150,"Interurban Ave & Westridge Dr",,35.260762,-80.903332,
13190,"Jennings St & Heil Pl",,35.255417,-80.850379,
13200,"Mulberry Ave & Heil Pl",,35.255228,-80.850512,
13210,"Jennings St & Russell Ave",,35.256430,-80.849695,
13230,"Jennings St & Russell Ave",,35.256171,-80.849951,
13240,"Jennings St & Newcastle St",,35.258520,-80.848014,
13250,"Jennings St & Newcastle St",,35.258711,-80.847921,
13280,"Johnston Rd & Park Rd",,35.095881,-80.859303,
13300,"Johnston Rd @ Oakbrook Apts",,35.094556,-80.858604,
13310,"Johnston Rd & McMullen Creek Pkwy",,35.092237,-80.856779,
13630,"Kennesaw Dr & Newland Rd",,35.263678,-80.845708,
13640,"Kennesaw Dr & Newland Rd",,35.263801,-80.845718,
13660,"Kentucky Ave & Honeywood Ave",,35.263052,-80.874768,
13770,"Kings Dr & Baxter St",,35.211645,-80.835084,
13810,"Kings Dr & Elizabeth Ave",,35.218493,-80.831604,
13870,"Statesville Ave & Holland Ave",,35.259121,-80.836492,
13910,"LaSalle St & Taylor Ave",,35.262856,-80.855923,
13930,"LaSalle St & Botany St",,35.262443,-80.860634,
14040,"Lawyers Rd & Maplewood Ln",,35.197969,-80.717246,
14050,"Lawyers Rd & Walnut Grove Ln",,35.197503,-80.716383,
14055,"Lawyers Rd & Rolling Oak Ln",,35.195739,-80.711317,
14060,"Lawyers Rd & Rolling Oak Ln",,35.195719,-80.711878,
14070,"Lawyers Rd & Harri Ann Dr",,35.194264,-80.707540,
14080,"Lawyers Rd & Harri Ann Dr",,35.194473,-80.707772,
14090,"Lawyers Rd & Bent Creek Cir",,35.191427,-80.703329,
14100,"Lawyers Rd & Glenmont Dr",,35.190322,-80.701592,
14110,"Lawyers Rd & Meadow Glen Dr",,35.188570,-80.693453,
14120,"Lawyers Rd & Wilson Grove Rd",,35.186332,-80.688086,
14130,"Lawyers Rd & Lebanon Rd",,35.185983,-80.687680,
14140,"Lawyers Rd & Danbrooke Park Dr",,35.180983,-80.682419,
14150,"Lawyers Rd & Danbrooke Park Dr",,35.180827,-80.682017,
14160,"Lawyers Rd & Golden Spike Dr",,35.178590,-80.674464,
14170,"Lawyers Rd & Lawyers Station Dr",,35.178626,-80.674414,
14180,"Lawyers Rd & Wooden Rail Ln",,35.177830,-80.669829,
14190,"Lawyers Rd & Wooden Rail Ln",,35.177875,-80.669740,
14205,"Lawyers Rd & Evans Rd",,35.176208,-80.660843,
14210,"Lawyers Rd & Hwy 51",,35.174038,-80.657612,
14220,"Lawyers Rd & Hwy 51",,35.174018,-80.657495,
14240,"Lawyers Rd & Old Lawyers Rd",,35.200524,-80.722520,
14260,"Leake St & Nobles Ave",,35.209469,-80.918237,
14270,"Leake St & West Blvd",,35.207875,-80.917499,
14300,"Lester St @ Amay James Center",,35.203256,-80.901620,
14335,"Little Rock Rd & Tuckaseegee Rd",,35.245245,-80.937138,
14340,"Little Rock Rd & I-85",,35.243212,-80.938012,
14415,"Longleaf Dr & South Blvd",,35.110753,-80.881732,
14420,"Longleaf Dr & South Blvd",,35.110733,-80.881738,
14440,"Longleaf Dr @ 1606",,35.111367,-80.878087,
14460,"Longleaf Dr & Lodgepole Pl",,35.111813,-80.875378,
14470,"Longleaf Dr & Spruce Pine Pl",,35.111594,-80.873063,
14480,"Longleaf Dr & Timberline Rd",,35.110819,-80.871486,
14500,"Longleaf Dr & Greyleaf Pl",,35.109445,-80.873591,
14520,"Longleaf Dr & Longleaf Dr",,35.111149,-80.876019,
14610,"Mallard Creek Church Rd & Tryon St",,35.320507,-80.732329,
14630,"Tryon St & Mallard Creek Church Rd",,35.320879,-80.734502,
14635,"Mallard Creek Church Rd & Tryon St",,35.320615,-80.732725,
14640,"Mallard Creek Church Rd & Alexander Glen Dr",,35.318516,-80.729179,
14650,"Mallard Creek Church Rd & Mary Alexander Rd",,35.316877,-80.726365,
14700,"Van Landingham Rd & John Kirk Dr",,35.307209,-80.724818,
14710,"John Kirk & University Terrace",,35.308606,-80.723792,
14870,"Marvin Rd & Wendover Rd",,35.190500,-80.798603,
14880,"Marvin Rd & Billingsley Rd",,35.191321,-80.798922,
15000,"Albemarle Rd & Central Av",,35.203271,-80.746084,
15150,"Milan Rd East & Otwell Ct",,35.286417,-80.870530,
15160,"Milan Rd East & Braden Dr",,35.286827,-80.868361,
15210,"Milan Rd & Big River Rd",,35.290953,-80.872876,
15310,"Milton Rd & Tipperary Pl",,35.241601,-80.749995,
15320,"Milton Rd & Oak Forest Dr",,35.240180,-80.748822,
15360,"Milton Rd & Briarhill Dr",,35.239390,-80.748179,
15370,"Milton Rd & Briarhill Dr",,35.239167,-80.747809,
15390,"Milton Rd & Meadowcliff Dr",,35.238041,-80.746978,
15400,"Milton Rd & Mendham Dr",,35.237716,-80.745708,
15440,"Milton Rd & Barrington Dr",,35.237549,-80.744368,
15480,"Milton Rd & Sharon Amity Rd",,35.237068,-80.740462,
15500,"Milton Rd & Sharon Amity Rd",,35.237113,-80.739100,
15510,"Milton Rd & Sharon Amity Rd",,35.236782,-80.737123,
15760,"Monroe Rd & Montrose St",,35.204338,-80.808515,
15770,"Monroe Rd & Dunn Ave",,35.204444,-80.808453,
15780,"Monroe Rd & Puhlman St",,35.204212,-80.805083,
15790,"Monroe Rd & Colonnade Dr",,35.204326,-80.804158,
15800,"Monroe Rd & Alcott St",,35.204077,-80.802455,
15810,"Monroe Rd & Briar Creek Rd",,35.204227,-80.802381,
15820,"Monroe Rd & Washburn Ave",,35.203145,-80.800429,
15830,"Monroe Rd & Fortune St",,35.202512,-80.799401,
15850,"Monroe Rd & Chipley Ave",,35.201036,-80.797731,
15855,"Monroe Rd & Chipley Ave",,35.201338,-80.797878,
15880,"Monroe Rd & Buford Ave",,35.199083,-80.794959,
15890,"Monroe Rd & Oak Grove Rd",,35.198722,-80.794616,
15900,"Monroe Rd & Wendover Rd",,35.197237,-80.791915,
15910,"Monroe Rd & Wendover Rd",,35.196083,-80.790403,
15930,"Monroe Rd & McAlway Rd",,35.194858,-80.788134,
15950,"Monroe Rd & Commonwealth Ave",,35.194387,-80.784631,
15960,"Monroe Rd & Commonwealth Ave",,35.194237,-80.784966,
15980,"Monroe Rd & Chippendale Rd",,35.193648,-80.782429,
16000,"Monroe Rd & Chippendale Rd",,35.193391,-80.781319,
16010,"Monroe Rd & Commodore St",,35.192706,-80.780152,
16030,"Monroe Rd & Ross Moore Ave",,35.191188,-80.776661,
16040,"Monroe Rd & Eaton Rd",,35.191101,-80.776016,
16090,"Monroe Rd & McMullen Way",,35.186952,-80.766882,
16091,"Monroe Rd & McMullen Way",,35.187076,-80.766634,
16100,"Monroe Rd & Ashmore Dr",,35.186284,-80.765147,
16120,"Monroe Rd & Ashmore Dr",,35.186123,-80.764326,
16130,"Monroe Rd & Idlewild Rd",,35.184788,-80.762487,
16140,"Monroe Rd & Long Ave",,35.184858,-80.762283,
16150,"Monroe Rd & Bainbridge Rd",,35.183126,-80.759698,
16160,"Monroe Rd & Bainbridge Rd",,35.183247,-80.760052,
16190,"Monroe Rd & Old Post Rd",,35.179246,-80.757150,
16200,"Monroe Rd & Old Post Rd",,35.178768,-80.756830,
16230,"Monroe Rd & Conference Dr",,35.177201,-80.756635,
16240,"Monroe Rd & Eaglewood Ave",,35.173964,-80.756863,
16250,"Monroe Rd & McLaughlin Dr",,35.173738,-80.757046,
16260,"Monroe Rd & Wallace Ln",,35.175389,-80.756497,
16290,"Monroe Rd & Pinafore Dr",,35.171717,-80.757036,
16300,"Monroe Rd & Burtonwood Cir",,35.171124,-80.756695,
16310,"Monroe Rd @ Mason Wallace Park",,35.168225,-80.755762,
16320,"Monroe Rd & Woodberry Rd",,35.167148,-80.755538,
16350,"Monroe Rd & Painter Pl",,35.165023,-80.754432,
16351,"Monroe Rd & Fox Run Dr",,35.165542,-80.754574,
16360,"Monroe Rd & Lumarka Dr",,35.162827,-80.752765,
16370,"Monroe Rd & Chasewood Dr",,35.162514,-80.752755,
16380,"Monroe Rd & Renard Ridge Rd",,35.160744,-80.751606,
16390,"Monroe Rd & Renard Ridge Rd",,35.160845,-80.751487,
16400,"Monroe Rd & Village Lake Dr",,35.156667,-80.749018,
16410,"Monroe Rd & Village Lake Dr",,35.158085,-80.749638,
16420,"Monroe Rd & McAlpine Station Dr",,35.155347,-80.748174,
16430,"Monroe Rd & Timber Springs Dr",,35.155246,-80.747828,
16450,"Monroe Rd @ 8516",,35.153482,-80.746962,
16480,"Monroe Rd @ 8539",,35.153298,-80.746600,
16490,"Monroe Rd & Covedale Dr",,35.147477,-80.745097,
16510,"Monroe Rd & Covedale Dr",,35.146911,-80.744336,
16520,"Monroe Rd @ Greylyn Park",,35.145210,-80.742650,
16521,"Monroe Rd & Orchard Lake Dr",,35.145086,-80.742830,
16540,"Monroe Rd & Orchard Lake Dr",,35.143616,-80.741428,
16550,"Monroe Rd & Delmar Office Dr",,35.142228,-80.740348,
16560,"Monroe Rd & Orchard Lake Dr",,35.142176,-80.740524,
16580,"Monroe Rd & Sardis Rd North",,35.140107,-80.739580,
16600,"Monroe Rd & Sardis Rd North",,35.139798,-80.739249,
16610,"Monroe Rd & Galleria Blvd",,35.134038,-80.736413,
16620,"Monroe Rd @ Family Dollar",,35.131499,-80.735004,
16630,"Monroe Rd @ 10701",,35.128252,-80.731694,
16640,"Monroe Rd & Lois St",,35.120890,-80.727989,
16650,"Monteith Dr & Canterwood Dr",,35.274325,-80.774176,
16690,"Morris Field Dr & Seymour",,35.220047,-80.915033,
16691,"Morris Field Dr & Seymour Dr",,35.220066,-80.914830,
16770,"Morrison Blvd @ 6337",,35.155745,-80.832449,
16790,"Morrison Blvd & Roxborough Rd",,35.154267,-80.829542,
16800,"Morrison Blvd & Sharon Rd",,35.153359,-80.827761,
16840,"Morrison Blvd @ Double Tree",,35.155595,-80.832543,
16890,"Morrison Blvd & Sharon Rd",,35.153803,-80.828969,
16990,"Mulberry Ave & Miles Ct",,35.252628,-80.850888,
17000,"Mulberry Ave & Miles Ct",,35.252649,-80.850976,
17020,"Mulberry Church Rd & Tuckaseegee Rd",,35.243871,-80.919761,
17050,"Mulberry Church Rd & Queen City Dr",,35.241002,-80.919438,
17141,"Caldwell & 7th St",,35.225972,-80.835754,
17180,"Graham St & Atando Ave",,35.260475,-80.820034,
17200,"Davidson St & 5th St",,35.224038,-80.836535,
17210,"Davidson St & 6th St",,35.224739,-80.835613,
17220,"Davidson St & 9th St",,35.226248,-80.833232,
17230,"Davidson St & 8th St",,35.225834,-80.834080,
17240,"Davidson St & 10th St",,35.228010,-80.831028,
17250,"Davidson St & 11th St",,35.227786,-80.831120,
17260,"Davidson St & 12th St",,35.228934,-80.829699,
17270,"Davidson St & 12th St",,35.228851,-80.829563,
17290,"Davidson St & Belmont Ave",,35.231192,-80.826326,
17300,"Davidson St & Belmont Ave",,35.231502,-80.826025,
17330,"Davidson St & 16th St",,35.232786,-80.824151,
17340,"Davidson St & 16th St",,35.232829,-80.824196,
17400,"Davidson St & 19th St",,35.234342,-80.821741,
17420,"Davidson St & 19th St",,35.234987,-80.821155,
17450,"Davidson St & 21st St",,35.235815,-80.819922,
17480,"Davidson St & 22nd St",,35.236885,-80.818579,
17490,"Davidson St & 25th St",,35.238958,-80.815936,
17500,"Davidson St & 25th St",,35.239500,-80.815325,
17520,"Davidson St & 26th St",,35.239992,-80.814602,
17540,"Davidson St & 28th St",,35.241946,-80.812241,
17550,"Davidson St & 28th St",,35.241788,-80.812284,
17580,"Davidson St & 32nd St",,35.244953,-80.809266,
17620,"Davidson St & 33rd St",,35.245885,-80.807772,
17630,"Davidson & 35th",,35.246779,-80.806201,
17640,"Davidson St & 36th St",,35.247439,-80.805093,
17660,"Davidson St & 36th St",,35.247500,-80.804870,
17670,"Graham St & 5th St",,35.231274,-80.845898,
17671,"5th & Graham",,35.231465,-80.846060,
17672,"Graham St & 6th St",,35.232019,-80.844913,
17675,"Graham St & 7th St",,35.233124,-80.843396,
17680,"Graham St & 9th St",,35.233997,-80.842234,
17690,"Graham St & Dalton Ave",,35.240089,-80.835658,
17700,"Graham St & Armour Dr",,35.242034,-80.833949,
17720,"Graham St & Sylvania Ave",,35.243836,-80.832676,
17730,"Graham St & Sylvania Ave",,35.243735,-80.832641,
17740,"Graham St & Keswick Ave",,35.244726,-80.831993,
17760,"Graham St & Wolfberry St",,35.245531,-80.831267,
17780,"Graham St & 24th St",,35.247508,-80.829761,
17790,"Graham St & Wolfberry St",,35.245722,-80.831222,
17800,"Graham St & Concordia Ave",,35.249778,-80.828140,
17810,"Graham St & 24th St",,35.247356,-80.829995,
17820,"Graham St & Concordia Ave",,35.249476,-80.828267,
17830,"Graham St & Franklin Av",,35.251321,-80.827063,
17840,"Graham St & Franklin Av",,35.251189,-80.826909,
17860,"Graham St & Ennis Ave",,35.258088,-80.821914,
17861,"Graham St & Ennis Ave",,35.258300,-80.821932,
17880,"Graham St & Atando Ave",,35.260570,-80.820077,
17900,"Graham St & Kennedy St",,35.262303,-80.818510,
17910,"Graham St & Johnson Rd",,35.264117,-80.817217,
17920,"Graham St & Toal St",,35.265446,-80.816574,
17930,"Graham St & Toal St",,35.265505,-80.816471,
17940,"Graham St & Ameron Dr",,35.267802,-80.815239,
17950,"Graham St & Starita Rd",,35.268838,-80.814679,
17960,"Graham St & Starita Rd",,35.269357,-80.814520,
17970,"Graham St & Craighead Rd",,35.270102,-80.813943,
17980,"Graham St & Amble Dr",,35.272261,-80.812342,
17990,"Graham St & Amble Dr",,35.272532,-80.812245,
18000,"Graham St & Cottonwood St",,35.274954,-80.810345,
18010,"Graham St & Reagan Dr",,35.274788,-80.810221,
18040,"Elizabeth Ave & Kings Dr",,35.218536,-80.832546,
18120,"Tryon St & 6th St",,35.228932,-80.840570,
18150,"Tryon St & 8th St",,35.230056,-80.838934,
18190,"Tryon St & Phifer Ave",,35.231255,-80.837260,
18300,"Tryon St & Wadsworth Pl",,35.235981,-80.831023,
18330,"Tryon St & Wadsworth Pl",,35.236041,-80.831181,
18370,"Tryon St & Dalton Ave",,35.237943,-80.828622,
18390,"Tryon St & Dalton Ave",,35.239103,-80.827267,
18400,"Tryon St & Dalton Ave",,35.239209,-80.826978,
18420,"Tryon St & Keswick Ave",,35.241011,-80.824683,
18430,"Tryon St & Keswick Ave",,35.241156,-80.824807,
18440,"Tryon St & 23rd St",,35.242015,-80.823752,
18450,"Tryon St & 24th St",,35.243173,-80.822170,
18460,"Tryon St & 23rd St",,35.242324,-80.823049,
18470,"Tryon St & 24th St",,35.243351,-80.822183,
18480,"Tryon St & 26th St",,35.245451,-80.819842,
18490,"Tryon St & 27th St",,35.245835,-80.819325,
18500,"Tryon St & 28th St",,35.247379,-80.817695,
18510,"Tryon St & 28th St",,35.246943,-80.818018,
18520,"Tryon St & 30th St",,35.249186,-80.815256,
18530,"Tryon St & 30th St",,35.249194,-80.815461,
18540,"Tryon St & 32nd St",,35.250590,-80.813154,
18550,"Tryon St & 32nd St",,35.250530,-80.813630,
18570,"Tryon St & Atando Ave",,35.251709,-80.810853,
18580,"Tryon St & 36th St",,35.252893,-80.807754,
18590,"Tryon St & 36th St",,35.253133,-80.807141,
18610,"Tryon St & Hilo Dr",,35.254311,-80.804050,
18620,"Tryon St & Hilo Dr",,35.254297,-80.803148,
18630,"Tryon St & Craighead Rd",,35.254764,-80.801520,
18640,"Tryon St & Craighead Rd",,35.255201,-80.799982,
18650,"Tryon St & Austin Dr",,35.267765,-80.768176,
18660,"Tryon St @ 4070",,35.256948,-80.797244,
18670,"Tryon St @ 4108",,35.257532,-80.796354,
18680,"Tryon St & Sugar Creek Rd",,35.257272,-80.796932,
18700,"Tryon St & Beechway Cir",,35.258382,-80.793258,
18720,"Tryon St & Wellingford St",,35.258496,-80.792026,
18730,"Tryon St & Mellow Dr",,35.258398,-80.788651,
18740,"Tryon St & Dorton St",,35.258181,-80.787725,
18750,"Tryon St & Bennett St",,35.258244,-80.785096,
18760,"Tryon St & Bennett St",,35.258036,-80.784335,
18770,"Tryon St & Bingham Dr",,35.258154,-80.782816,
18780,"Tryon St & Eastway Dr",,35.259390,-80.778022,
18790,"Tryon St & Lambeth Dr",,35.258091,-80.781351,
18800,"Tryon St & Eastway Dr",,35.258779,-80.778813,
18820,"Tryon St & Northchase Dr",,35.261942,-80.773789,
18840,"Tryon St & Old Concord Rd",,35.263282,-80.771942,
18860,"Tryon St & Orr Rd",,35.265911,-80.769044,
18890,"Tryon St  & Austin Dr",,35.266774,-80.769105,
18910,"Tryon St & Orchard Trace Ln",,35.281129,-80.765642,
18930,"Tryon St & Rocky River Rd",,35.288378,-80.758806,
18960,"Tryon St & University City Blvd",,35.292668,-80.755837,
19040,"Tryon St & JM Keynes Dr",,35.308300,-80.747484,
19060,"Tryon St & JM Keynes Dr",,35.307613,-80.748612,
19110,"Tryon St & Barton Creek Dr",,35.315413,-80.740488,
19120,"Tryon St @ 9528 (Hight Veterinary)",,35.316080,-80.739420,
19130,"N Tryon St @ Cookout",,35.317825,-80.738069,
19140,"Nations Ford Rd & Tryon St",,35.178080,-80.891129,
19160,"Nations Ford Rd & Marshall Air Dr",,35.171170,-80.890524,
19200,"Nations Ford Rd & Lone Pine Ln",,35.168775,-80.891840,
19210,"Nations Ford Rd & Tyvola Rd",,35.163497,-80.895399,
19230,"Nations Ford Rd & Tyvola Rd",,35.162638,-80.896058,
19240,"Nations Ford Rd & Sharview Cir",,35.161085,-80.896423,
19250,"Nations Ford Rd & Sharview Cir",,35.161257,-80.896310,
19260,"Nations Ford Rd & Glenrock Dr",,35.158614,-80.896844,
19270,"Nations Ford Rd & Echodale Dr",,35.156826,-80.897037,
19280,"Nations Ford Rd & Echodale Dr",,35.156897,-80.896925,
19290,"Nations Ford Rd @ EE Waddell High School",,35.154321,-80.897293,
19300,"Nations Ford Rd @ EE Waddell High School",,35.154316,-80.897430,
19310,"Nations Ford Rd & Regency Executive Park Dr",,35.152760,-80.897649,
19320,"Nations Ford Rd & Nations Dr",,35.150650,-80.897804,
19330,"Nations Ford Rd & Choyce Ave",,35.150177,-80.897485,
19340,"Nations Ford Rd & Red Roof Dr",,35.145503,-80.895683,
19350,"Nations Ford Rd & Farmhurst Dr",,35.145775,-80.895669,
19360,"Nations Ford Rd & Farmhurst Dr",,35.143176,-80.894598,
19370,"Nations Ford Rd & Forest Point Blvd",,35.143050,-80.894712,
19380,"Nations Ford Rd & Short Hills Dr",,35.141404,-80.894520,
19390,"Nations Ford Rd & Short Hills Dr",,35.141370,-80.894399,
19400,"Nations Ford Rd & Colony Acres Dr",,35.139207,-80.893713,
19410,"Nations Ford Rd & Deanna Ln",,35.140069,-80.893994,
19420,"Nations Ford Rd & Hilary Cir",,35.138598,-80.892996,
19430,"Nations Ford Rd & Huntsmoor Dr",,35.137687,-80.892376,
19440,"Nations Ford Rd & Huntsmoor Dr",,35.136905,-80.891920,
19530,"Cindy Ln & Belmar Place Rd",,35.286259,-80.828459,
19531,"Cindy Ln & Belmar Place Rd",,35.286131,-80.829287,
19535,"Cindy Ln & Statesville Rd",,35.284666,-80.833790,
19536,"Cindy Ln & Statesville Rd",,35.284452,-80.833737,
19560,"Nevin Rd & Spring Terrace Ln",,35.288203,-80.823145,
19570,"Nevin Rd & Spring Terrace Ln",,35.288329,-80.822638,
19622,"Erie St & LaSalle St",,35.260760,-80.845245,
19630,"Newland Rd & Irma St",,35.265207,-80.847599,
19640,"Newland Rd & Irma St",,35.265072,-80.847435,
19650,"Newland Rd & Holly St",,35.267252,-80.850105,
19660,"Newland Rd & Holly St",,35.267519,-80.850396,
19670,"Newland Rd & Gilbert St",,35.268137,-80.850775,
19740,"Nobles Ave & Leake St",,35.209532,-80.918458,
19800,"Nobles Ave @ 3100",,35.209456,-80.916103,
19810,"Nobles Ave & Leake St",,35.209789,-80.917809,
19835,"Nobles Ave & Holabird Ln",,35.209365,-80.914690,
19850,"Nobles Ave & Leake St",,35.209789,-80.917615,
19860,"Norris Ave & Catalina Ave",,35.251889,-80.819572,
19870,"Norris Ave & Catalina Ave",,35.251644,-80.819514,
19890,"Norris Ave & Isenhour St",,35.257541,-80.832482,
19900,"Norris Ave & Isenhour St",,35.257474,-80.832957,
19905,"Norris Ave & Statesville Ave",,35.257488,-80.834408,
19910,"Norris Ave & Statesville Ave",,35.257337,-80.835299,
19970,"Oaklawn Ave & Spring St",,35.245892,-80.837533,
19990,"Oaklawn Ave & Stroud Park Ct",,35.247005,-80.841160,
20010,"Oaklawn Ave & Burton St",,35.247689,-80.843196,
20030,"Oaklawn Ave & Andrill Ter",,35.248814,-80.847592,
20040,"Oaklawn Ave & Andrill Ter",,35.248566,-80.847513,
20050,"Oaklawn Ave & Blazer Dr",,35.250049,-80.849520,
20060,"Oaklawn Ave & Clifton St",,35.249912,-80.849500,
20070,"Oaklawn & Fairfield",,35.250570,-80.850765,
20080,"Oaklawn & Mulberry",,35.251170,-80.851575,
20281,"Morris Field Dr & CPCC Harris Campus Dr",,35.216492,-80.921332,
20282,"Morris Field Dr & Airport Center Pkwy",,35.216641,-80.921518,
20380,"Orange St & Sam Drenan Rd",,35.199140,-80.809578,
20400,"Orange St & Maxwell Ariel Ln",,35.200782,-80.808328,
20410,"Orange St & McVay St",,35.202217,-80.807158,
20430,"Aberdeen St & Whitehall Dr",,35.233638,-80.904929,
20480,"Park Rd & Worthington Ave",,35.204495,-80.851181,
20490,"Park Rd & Worthington Ave",,35.204693,-80.850854,
20520,"Park Rd & Ideal Way",,35.200925,-80.852272,
20530,"Park Rd & Ideal Way",,35.200888,-80.852177,
20540,"Park Rd & Charlotte Dr",,35.199340,-80.852078,
20550,"Park Rd & Charlotte Dr",,35.199593,-80.851985,
20560,"Park Rd & Ordermore Ave",,35.197685,-80.851709,
20570,"Park Rd & McDonald Ave",,35.197689,-80.851813,
20580,"Park Rd & Poindexter Dr",,35.191524,-80.853160,
20590,"Park Rd & Sunset Dr",,35.194007,-80.852060,
20600,"Park Rd & Salem Dr",,35.194241,-80.851802,
20630,"Park Rd & Poindexter Dr",,35.191467,-80.853095,
20640,"Park Rd & Marsh Rd",,35.187875,-80.853066,
20650,"Park Rd & Princeton Ave",,35.188662,-80.853014,
20660,"Park Rd & Marsh Rd",,35.186345,-80.852884,
20670,"Park Rd & Hampton Gardens Ln",,35.185415,-80.852760,
20680,"Park Rd & Park Slope Dr",,35.185226,-80.852906,
20690,"Park Rd @ 3420 (YWCA)",,35.183253,-80.852386,
20700,"Park Rd & Townes Rd",,35.183301,-80.852290,
20710,"Park Rd & Hillside Ave",,35.180714,-80.851434,
20720,"Park Rd & Hillside Ave",,35.179474,-80.851319,
20760,"Park Rd & Park Rd Shopping Center Dr",,35.175579,-80.850980,
20770,"Park Rd & Heather Ln",,35.174516,-80.851281,
20780,"Park Rd @ 4335",,35.172958,-80.851141,
20790,"Park Rd & Montford Dr",,35.171090,-80.851112,
20800,"Park Rd & Woodlawn Rd",,35.171328,-80.850947,
20820,"Park Rd & Mockingbird Ln",,35.168112,-80.850676,
20830,"Park Rd & Abbey Pl",,35.168706,-80.850616,
20840,"Park Rd & Mockingbird Ln",,35.167058,-80.850394,
20850,"Park Rd & Seneca Pl",,35.165861,-80.850508,
20860,"Park Rd & Seneca Pl",,35.164857,-80.850164,
20870,"Park Rd @ 4912",,35.163669,-80.849739,
20880,"Park Rd @ 4943",,35.163481,-80.849416,
20890,"Park Rd & Cortland Rd",,35.162094,-80.849161,
20900,"Park Rd @ Cielo Apts",,35.161804,-80.848933,
20910,"Park Rd & Selwyn Ave",,35.159198,-80.848600,
20920,"Park Rd & Scofield Rd",,35.155970,-80.848379,
20930,"Park Rd & Manning Dr",,35.157272,-80.848432,
20940,"Park Rd & Selwyn Ave",,35.159925,-80.848827,
20950,"Park Rd & Scofield Rd",,35.155805,-80.848191,
20970,"Park Rd & Tyvola Rd",,35.152150,-80.848751,
20980,"Park Rd & Closeburn Rd",,35.151169,-80.848715,
20990,"Park Rd @ Park Road Park",,35.147642,-80.849833,
21020,"Park Rd & Archdale Dr",,35.145830,-80.849755,
21060,"Park Rd & Old Reid Rd",,35.141765,-80.851062,
21080,"Park Rd & Northampton Dr",,35.139363,-80.852262,
21090,"Park Rd & Northampton Dr",,35.140018,-80.851899,
21100,"Park Rd & Park South Dr",,35.136995,-80.852937,
21110,"Park Rd & Park South Dr",,35.137109,-80.853027,
21120,"Park Rd & Huntington Farms Ln",,35.133831,-80.853568,
21135,"Park Rd & Barcan Ct",,35.132348,-80.853628,
21160,"Park Rd & Seth Thomas Rd",,35.129013,-80.854285,
21200,"Park Rd & Meeting St",,35.121394,-80.854680,
21210,"Park Rd & Meeting St",,35.121000,-80.854616,
21220,"Park Rd & Hamlin Park Dr",,35.115495,-80.856576,
21230,"Park Rd & Hamlin Park Dr",,35.115665,-80.856232,
21251,"Park Rd @ Southminister Retirement Dr",,35.110457,-80.857879,
21252,"Park Rd @ South Meck High School",,35.110616,-80.858084,
21260,"Park Rd & Arbor Pointe Dr",,35.107358,-80.858187,
21270,"Park Rd & Arbor Pointe Dr",,35.107848,-80.858148,
21280,"Park Rd & Birnen Dr",,35.103873,-80.857823,
21290,"Park Rd & Birnen Dr",,35.103825,-80.857571,
21300,"Park Rd & Park Crossing Dr",,35.099498,-80.859245,
21310,"Park Rd & Park Crossing Dr",,35.099411,-80.859022,
21320,"Park Rd & Plum Creek Ln",,35.096089,-80.860963,
21325,"Park Rd & Old Park Dr",,35.096157,-80.861165,
21330,"Park Rd & Park Cedar Dr",,35.095038,-80.865854,
21335,"Park Rd & Park Cedar Dr",,35.095089,-80.866099,
21340,"Park Rd & Willow Ridge Rd",,35.093520,-80.868180,
21345,"Park Rd & Willow Ridge Rd",,35.094359,-80.867819,
21350,"Park Rd @ Black Lion",,35.092485,-80.868663,
21355,"Park Rd @ CMC Pineville",,35.091191,-80.869658,
21360,"Park Rd & Hunter Ridge Dr",,35.088119,-80.870905,
21370,"Park Rd & Hunter Ridge Dr",,35.088228,-80.870712,
21380,"Park Rd & Osprey Dr",,35.086046,-80.869704,
21385,"Park Rd & Hunter Trail Ln",,35.085412,-80.868931,
21400,"Park Rd & Blue Heron Dr",,35.082517,-80.867972,
21403,"Park Rd & Blue Heron",,35.081787,-80.867758,
21405,"Park Rd & Tradewinds Ln",,35.079986,-80.867800,
21410,"Park Rd & Tradewinds Ln",,35.080232,-80.867846,
21420,"Park Rd & Camelback Cir",,35.078486,-80.868839,
21425,"Park Rd & Camelback Cir",,35.078412,-80.868794,
21426,"Park Rd @ Sam's Club",,35.076163,-80.874709,
21427,"Park Rd & I-485",,35.077211,-80.871267,
21428,"Park Rd & I-485",,35.077118,-80.871238,
21429,"Park Rd @ Sam's Club",,35.076068,-80.874667,
21511,"5th St & Cedar St",,35.234337,-80.849592,
21512,"5th St & Cedar St",,35.234119,-80.849641,
21513,"Salem Church Rd & Rozzelles Ferry Rd",,35.276316,-80.893927,
21560,"Parkwood Ave & Umstead St",,35.233120,-80.812550,
21570,"Parkwood Ave & Hawthorne Ln",,35.232960,-80.810902,
21580,"Parkwood Ave & Hawthorne Ln",,35.232769,-80.810479,
21590,"Parkwood Ave & Barry St",,35.232619,-80.809270,
21600,"Parkwood Ave & The Plaza",,35.232726,-80.808371,
21640,"Pegram St & Belmont Ave",,35.226857,-80.818911,
21650,"Pegram St & Belmont Ave",,35.226750,-80.818889,
21680,"Pegram St & 16th St",,35.227948,-80.817802,
21690,"Pegram St & 16th St",,35.228403,-80.817358,
21700,"Pegram St & 17th St",,35.229417,-80.816621,
21710,"Pegram St & 17th St",,35.229368,-80.816596,
21740,"Pegram St & Parkwood Ave",,35.232722,-80.814142,
21750,"Pegram St & 20th St",,35.232031,-80.814606,
21760,"Pegram St & 20th St",,35.232066,-80.814613,
21770,"Pegram St & Parkwood Ave",,35.233081,-80.813869,
21790,"Pence Rd & Holly Hill Rd",,35.222590,-80.704738,
21800,"Pence Rd & Viola Dr",,35.216970,-80.695341,
21805,"Pence Rd & Viola Dr",,35.216745,-80.695122,
21970,"Pressley Rd & Tryon St",,35.184460,-80.887491,
21990,"Pressley Rd & Charlotte Park Dr",,35.185646,-80.889336,
22000,"Pressley Rd & Charlotte Park Dr",,35.185881,-80.890110,
22030,"Pressley Rd & Stuart Andrew Blvd",,35.186600,-80.890928,
22040,"Pressley Rd @ 654",,35.187816,-80.891870,
22070,"Pressley Rd & Bishop Dr",,35.189339,-80.893064,
22080,"Pressley Rd & Bishop Dr",,35.189229,-80.893048,
22130,"Pressley Rd & Barringer Dr",,35.192816,-80.894949,
22150,"Pressley Rd & Rose Vine Pl",,35.194496,-80.894904,
22160,"Pressley Rd & Rose Vine Pl",,35.194481,-80.895009,
22190,"Providence Rd & Ardsley Rd",,35.202013,-80.825009,
22200,"Providence Rd & Altondale Ave",,35.200050,-80.825551,
22210,"Providence Rd & Ardsley Rd",,35.201734,-80.824943,
22220,"Providence Rd & Cottage Pl",,35.198806,-80.826076,
22230,"Providence Rd & Altondale Ave",,35.199607,-80.825612,
22240,"Providence Rd & Cottage Pl",,35.198609,-80.826018,
22250,"Providence Rd & Middleton Dr",,35.197752,-80.826370,
22260,"Providence Rd & Middleton Dr",,35.197916,-80.826444,
22270,"Providence Rd & Queens Rd",,35.195189,-80.826517,
22290,"Providence Rd & Queens Rd",,35.195290,-80.826703,
22300,"Providence Rd & Oxford Pl",,35.193573,-80.825396,
22310,"Providence Rd & Oxford Pl",,35.193333,-80.825113,
22320,"Providence Rd & Cherokee Rd",,35.192138,-80.824306,
22330,"Providence Rd & Portland Ave",,35.190280,-80.823287,
22340,"Providence Rd & Portland Ave",,35.189812,-80.822982,
22350,"Providence Rd & Beverly Dr",,35.187650,-80.822177,
22360,"Providence Rd & Beverly Dr",,35.187518,-80.822007,
22370,"Providence Rd & Scotland Ave",,35.184140,-80.820596,
22380,"Providence Rd & Hanson Dr",,35.184064,-80.820722,
22390,"Providence Rd & Vernon Dr",,35.182701,-80.819974,
22400,"Providence Rd & Pinewood Cir",,35.181901,-80.819779,
22410,"Providence Rd & Cassamia Pl",,35.180470,-80.819178,
22420,"Providence Rd & Harris Rd",,35.178914,-80.818514,
22430,"Providence Rd & Providence Dr",,35.179107,-80.818426,
22450,"Providence Rd & Wendover Rd",,35.176949,-80.816870,
22460,"Providence Rd & Vernon Dr",,35.175976,-80.815610,
22470,"Providence Rd & Andover Rd",,35.174831,-80.813700,
22480,"Providence Rd & Shoreham Dr",,35.174454,-80.813377,
22510,"Providence Rd & Sharon Amity Rd",,35.172107,-80.809684,
22520,"Providence Rd & Sharon Amity Rd",,35.172135,-80.809464,
22530,"Providence Rd & Brookridge Ln",,35.170141,-80.807058,
22540,"Providence Rd & Greentree Dr",,35.168535,-80.805029,
22550,"Providence Rd & Rutledge Ave",,35.167077,-80.804020,
22560,"Providence Rd & Westbury Rd",,35.168170,-80.804479,
22570,"Providence Rd & Cavendish Ct",,35.163231,-80.801713,
22580,"Providence Rd & Huntington Park Dr",,35.165035,-80.802797,
22590,"Providence Rd & Cloister Dr",,35.161336,-80.800586,
22600,"Providence Rd & Cavendish Ct",,35.162950,-80.801409,
22610,"Providence Rd & Strawberry Hill Dr",,35.157959,-80.798300,
22620,"Providence Rd & Meadowood Ln",,35.161409,-80.800478,
22630,"Providence Rd @ Camden Pinehurst Apts",,35.157091,-80.797351,
22640,"Providence Rd & Fairview Rd",,35.156222,-80.796471,
22650,"Providence Rd @ Camden Pinehurst Apts",,35.156942,-80.797059,
22660,"Providence Rd & Old Sardis Rd",,35.155391,-80.795593,
22670,"Providence Rd & Mammoth Oaks Dr",,35.152543,-80.793630,
22690,"Providence Rd & Provence Village Ln",,35.152048,-80.793646,
22710,"Providence Rd & Greylyn Dr",,35.149288,-80.791845,
22715,"Providence Rd & Shalom Park Dr",,35.146950,-80.790063,
22720,"Providence Rd & Creola Rd",,35.150117,-80.792318,
22730,"Providence Rd & Jefferson Dr",,35.148886,-80.791371,
22735,"Providence Rd & Shalom Park Dr",,35.147681,-80.790389,
22740,"Providence Rd & East Barden Rd",,35.145431,-80.788605,
22750,"Providence Rd & East Barden Rd",,35.145624,-80.788599,
22760,"Providence Rd & Pine Tree Dr",,35.143602,-80.786723,
22770,"Providence Rd & Old Farm Rd",,35.143089,-80.786453,
22780,"Providence Rd & Brockton Ln",,35.141862,-80.785583,
22800,"Providence Rd & Folger Dr",,35.141218,-80.785120,
22810,"Providence Rd & International Dr",,35.134762,-80.782520,
22820,"Providence Rd & Sardis Ln",,35.138321,-80.783859,
22840,"Providence Rd & International Dr",,35.135235,-80.782524,
22850,"Providence Rd @ Heatherwood Apts",,35.132561,-80.781606,
22860,"Providence Rd @ Heatherwood Apts",,35.132544,-80.781803,
22870,"Providence Rd & Summertree Ln",,35.126647,-80.781186,
22880,"Providence Rd & Summertree Ln",,35.126272,-80.780933,
22890,"Providence Rd & Outer Bridge Ln",,35.124156,-80.780703,
22900,"Providence Rd & Outer Bridge Ln",,35.123962,-80.780866,
22910,"Providence Rd & Hamilton Hill Rd",,35.122463,-80.780362,
22920,"Providence Rd & Lynbridge Dr",,35.122014,-80.780472,
22930,"Providence Rd & Alexander Rd",,35.115948,-80.779006,
22940,"Providence Rd & Rea Rd",,35.116336,-80.779348,
22950,"Providence Rd & Cedar Croft Dr",,35.114509,-80.778763,
22960,"Providence Rd & Cedar Croft Dr",,35.114215,-80.778914,
22970,"Providence Rd & Beverly Crest Blvd",,35.107844,-80.778604,
22980,"Providence Rd & Candlewyck Ln",,35.108634,-80.778682,
22990,"Providence Rd @ Arboretum Apts",,35.103988,-80.779029,
23000,"Providence Rd & Azalea Ridge Rd",,35.103872,-80.779227,
23010,"Providence Rd & Pineville-Matthews Rd",,35.101475,-80.778894,
23020,"Providence Rd & Pineville-Matthews Rd",,35.101269,-80.779110,
23030,"Walmart @ Arboretum",,35.097462,-80.783541,
23032,"Arboretum Cinemas Park & Ride",,35.099193,-80.780630,
23160,"Queens Rd & Edgehill Rd South",,35.201741,-80.832627,
23190,"Queens Rd & Ardsley Rd",,35.200591,-80.831479,
23240,"Queens Rd & Hopedale Ave",,35.196294,-80.827754,
23250,"Queens Rd @ Queens Towers Apts",,35.197294,-80.828513,
23260,"Queens Rd & Hopedale Ave",,35.196324,-80.828089,
23280,"Queens Rd & Pembroke Ave",,35.194483,-80.827966,
23310,"Queens Rd & Pembroke Ave",,35.194591,-80.827669,
23520,"Charlotte Douglas Airport (US Air Terminal)",,35.221117,-80.943078,
23590,"Randolph Rd & Caswell Rd",,35.210376,-80.824085,
23600,"Randolph Rd & Colonial Ave",,35.208945,-80.822717,
23610,"Randolph Rd & Colonial Ave",,35.208637,-80.822569,
23615,"Randolph Rd & Chase St",,35.207599,-80.821579,
23620,"Randolph Rd & Chase St",,35.207496,-80.821355,
23650,"Randolph Rd & Van Ness St",,35.205804,-80.819837,
23660,"Randolph Rd & Van Ness St",,35.205721,-80.819635,
23670,"Randolph Rd & Laurel Ave",,35.204848,-80.818842,
23680,"Randolph Rd & Laurel Ave",,35.203956,-80.818072,
23690,"Randolph Rd & Dotger Ave",,35.202851,-80.817019,
23700,"Randolph Rd & Dotger Ave",,35.202683,-80.816677,
23710,"Randolph Rd & Museum Plaza",,35.200297,-80.813762,
23720,"Randolph Rd & Cranbrook Ln",,35.200296,-80.813634,
23760,"Randolph Rd & Billingsley Rd",,35.191216,-80.810875,
23770,"Randolph Rd & Billingsley Rd",,35.191206,-80.811048,
23780,"Randolph Rd @ Randolph Park",,35.192913,-80.810966,
23790,"Randolph Rd & Wendwood Ln",,35.188117,-80.810083,
23800,"Randolph Rd & Meadowbrook Rd",,35.187818,-80.810056,
23860,"Randolph Rd & Canterbury Rd",,35.182358,-80.806142,
23910,"Randolph Rd & Canterbury Rd",,35.181870,-80.805532,
23940,"Randolph Rd & Cheltenham Rd",,35.179517,-80.803020,
23960,"Randolph Rd & Woodlark Ln",,35.179429,-80.802646,
23980,"Randolph Rd & Sharon Amity Rd",,35.174628,-80.797814,
23990,"Randolph Rd & Greenwich Rd",,35.178038,-80.800658,
23991,"Randolph Rd & Sam Drenan Rd",,35.198286,-80.810965,
24020,"Randolph Rd & Sharon Amity Rd",,35.176723,-80.799096,
24030,"Randolph Rd & Sharon Amity Rd",,35.176515,-80.798656,
24050,"Randolph Rd & Gaynor Rd",,35.174636,-80.797661,
24080,"Randolph Rd @ 4801",,35.171499,-80.796440,
24090,"Randolph Rd & Beckham Ct",,35.168785,-80.795497,
24110,"Randolph Rd & Hunter Ln",,35.168423,-80.795231,
24130,"Randolph Rd & Rembrandt Cir",,35.165843,-80.794274,
24150,"Randolph Rd & Willhaven Dr",,35.164083,-80.792502,
24160,"Randolph Rd & Shasta Ln",,35.163752,-80.791999,
24190,"Randolph Rd & Sardis Rd",,35.160764,-80.787432,
24280,"Rea Rd & Reacroft Dr",,35.103905,-80.807950,
24281,"Colony Rd & Wisley Blvd",,35.106523,-80.808235,
24282,"Colony Rd & Wisley Blvd",,35.106585,-80.808096,
24283,"Colony Rd & Abbotswood Dr",,35.114080,-80.804805,
24284,"Colony Rd & Abbotswood Dr",,35.114183,-80.804956,
24285,"Rea Rd & Reacroft Dr",,35.103775,-80.808193,
24286,"Colony Rd & Morrowick Rd",,35.119203,-80.807748,
24287,"Colony Rd & Morrowick Rd",,35.119442,-80.807962,
24290,"Rea Rd & Macandrew Dr",,35.100007,-80.808863,
24300,"Rea Rd & Carmel Estates Rd",,35.096827,-80.809615,
24315,"Rea Rd & Pineville-Matthews Rd",,35.086265,-80.812086,
24316,"Rea Rd & Pineville-Matthews Rd",,35.086301,-80.811863,
24320,"Rea Rd @ Calvary Park & Ride",,35.081935,-80.813474,
24330,"Rea Rd & Bevington Pl",,35.078366,-80.816507,
24340,"Rea Rd & Old Course Dr",,35.071279,-80.819251,
24350,"Rea Rd & Piper Glen Dr",,35.067162,-80.817795,
24360,"Rea Rd & Ballantyne Commons Pkwy",,35.059808,-80.812865,
24370,"Rea Rd & Piper Station Dr",,35.061197,-80.813481,
24470,"Remount Rd & Baltimore Ave",,35.206425,-80.870582,
24490,"Remount Rd & Tryon St",,35.206448,-80.870368,
24510,"Remount Rd & Brookhill Rd",,35.208554,-80.872944,
24520,"Remount Rd & Toomey Ave",,35.208791,-80.873429,
24530,"Remount & Barringer",,35.214418,-80.879378,
24560,"Remount Rd & Parker Dr",,35.220584,-80.883450,
24561,"Remount Rd & Parker Dr",,35.220520,-80.883245,
24580,"Rodman St & Burkland Dr",,35.195699,-80.804446,
24590,"Rodman St & Burkland Dr",,35.195734,-80.804450,
24600,"Rosa Parks Pl & Beatties Ford Rd",,35.273264,-80.855007,
24620,"Rose Thorn Pl & Pressley Rd",,35.195015,-80.894213,
24690,"Rowan St & Fair St",,35.257677,-80.892797,
24710,"Rowan St & Hoskins Rd",,35.257697,-80.895029,
24720,"5th and Martin st",,35.242096,-80.859356,
24730,"Rozzelles Ferry Rd & Trade St",,35.242263,-80.859794,
24760,"Rozzelles Ferry Rd & Lima Ave",,35.243478,-80.862107,
24770,"Rozzelles Ferry Rd & Lima Ave",,35.243615,-80.862472,
24800,"Rozzelles Ferry Rd & Turner Ave",,35.244818,-80.864670,
24810,"Rozzelles Ferry Rd & Turner Ave",,35.244857,-80.864986,
24820,"Rozzelles Ferry Rd & Gardener Ave",,35.245545,-80.866184,
24830,"Rozzelles Ferry Rd & Gardener Ave",,35.245472,-80.866239,
24840,"Rozzelles Ferry Rd & Smallwood Pl",,35.246125,-80.867370,
24850,"Rozzelles Ferry Rd & Smallwood Pl",,35.246360,-80.867994,
24860,"Rozzelles Ferry Rd & Zebulon Ave",,35.248063,-80.868962,
24870,"Rozzelles Ferry Rd & Zebulon Ave",,35.247859,-80.869011,
24880,"Rozzelles Ferry Rd & Judson Ave",,35.250460,-80.870176,
24890,"Rozzelles Ferry Rd & Judson Ave",,35.250340,-80.870301,
24905,"Rozzelles Ferry Rd @ 3020",,35.253412,-80.871708,
24920,"Rozzelles Ferry Rd & Coronet Way",,35.253893,-80.872262,
24940,"Rozzelles Ferry Rd & Norwood Dr",,35.255444,-80.874000,
24950,"Rozzelles Ferry Rd & Norwood Dr",,35.255379,-80.874109,
24955,"Rozzelles Ferry Rd @ 3245",,35.256412,-80.875375,
24960,"Rozzelles Ferry Rd & Lakewood Ave",,35.256460,-80.875286,
24970,"Rozzelles Ferry Rd & Oregon St",,35.257568,-80.876802,
25000,"Rozzelles Ferry Rd & Halsey St",,35.258465,-80.877923,
25010,"Rozzelles Ferry Rd & Lander St",,35.258223,-80.877679,
25020,"Rozzelles Ferry Rd & Honeywood Ave",,35.259868,-80.879085,
25030,"Rozzelles Ferry Rd & Dupree St",,35.259880,-80.879249,
25040,"Rozzelles Ferry Rd & Linwood Ave",,35.261755,-80.880732,
25050,"Rozzelles Ferry Rd & Linwood Ave",,35.262092,-80.881178,
25060,"Rozzelles Ferry Rd & Goff St",,35.263665,-80.882395,
25070,"Rozzelles Ferry Rd & Crigler St",,35.263482,-80.882343,
25080,"Rozzelles Ferry Rd & Hoskins Rd",,35.265652,-80.884251,
25090,"Rozzelles Ferry Rd & Hoskins Rd",,35.266084,-80.884481,
25120,"Rozzelles Ferry Rd & Manley St",,35.268919,-80.886839,
25130,"Rozzelles Ferry Rd & Manley St",,35.268947,-80.886970,
25140,"Rozzelles Ferry Rd & Lawton Rd",,35.271225,-80.889037,
25150,"Rozzelles Ferry Rd & Lawton Rd",,35.270754,-80.888446,
25170,"Rozzelles Ferry Rd @ 4810",,35.272566,-80.889969,
25180,"Rozzelles Ferry Rd @ 4909",,35.273277,-80.890740,
25190,"Rozzelles Ferry Rd & Salem Church Rd",,35.273818,-80.891319,
25200,"Rozzelles Ferry Rd & Salem Church Rd",,35.274937,-80.893523,
25210,"Rozzelles Ferry Rd & Hovis Rd",,35.275709,-80.895471,
25220,"Runnymede Ln & Barclay Downs Dr",,35.167881,-80.836795,
25250,"Runnymede Ln & Selwyn Ave",,35.170835,-80.840758,
25270,"Brevard St & Martin Luther King Jr Blvd",,35.222573,-80.843063,
25280,"Caldwell St & 3rd St",,35.221348,-80.842359,
25310,"College St & 6th St",,35.227712,-80.839776,
25330,"College St & 4th St",,35.225372,-80.843137,
25360,"College St & 3rd St",,35.224455,-80.844508,
25390,"College St & 8th St",,35.229222,-80.837706,
25410,"College St & 11th St",,35.231073,-80.835132,
25420,"Davidson St & 4th St",,35.222418,-80.838809,
25440,"Kings Dr & Baxter St",,35.209658,-80.836192,
25450,"Kings Dr & Torrence St",,35.206966,-80.836093,
25460,"Kings Dr & Henley Pl",,35.205537,-80.835990,
25480,"Kings Dr & Brunswick Ave",,35.203707,-80.836027,
25490,"Kings Dr & Ardsley Rd",,35.200454,-80.836331,
25500,"Kings Dr & East Blvd",,35.196341,-80.836814,
25510,"Kings Dr & Morehead St",,35.205484,-80.836083,
25530,"McDowell St & 3rd St",,35.218010,-80.838244,
25540,"McDowell St & Martin Luther King Jr Blvd",,35.217742,-80.838901,
25550,"McDowell St & Martin Luther King Jr Blvd",,35.217237,-80.839382,
25570,"McDowell St & Baxter St",,35.214967,-80.842980,
25580,"McDowell St & Baxter St",,35.214612,-80.843227,
25641,"Tryon St & Trade St",,35.226818,-80.843508,
25650,"4th St & Tryon St",,35.226379,-80.843945,
25660,"Tryon St & 3rd St",,35.225843,-80.845075,
25720,"Tryon St & 2nd St",,35.224794,-80.846619,
25800,"Tryon St & Morehead St",,35.221619,-80.850626,
25815,"Tryon St & Carson Blvd",,35.220191,-80.852030,
25830,"Tryon St & Catherine St",,35.218887,-80.853357,
25840,"Tryon St & Bland St",,35.217702,-80.854475,
25850,"Tryon St & Bland St",,35.217747,-80.854577,
25880,"Tryon St & Park Ave",,35.215391,-80.858200,
25890,"Tryon St & Park Ave",,35.215449,-80.857843,
25910,"Tryon St & West Blvd",,35.214089,-80.861730,
25920,"Tryon St & West Blvd",,35.213884,-80.862026,
25930,"Tryon St & Doggett St",,35.212824,-80.864447,
25940,"Tryon St & Woodcrest Ave",,35.212629,-80.864985,
25950,"Tryon St & Tremont Ave",,35.210796,-80.866634,
25960,"Tryon St & Tremont Ave",,35.211327,-80.866535,
25970,"Tryon St & Rampart St",,35.209881,-80.866938,
25980,"Tryon St & Dunavant St",,35.208291,-80.867212,
25990,"Tryon St & Brookhill Rd",,35.208044,-80.867542,
26020,"Tryon St & Remount Rd",,35.206286,-80.868961,
26030,"Tryon St & Remount Rd",,35.206210,-80.868859,
26040,"Tryon St & Herman Ave",,35.199187,-80.874536,
26050,"Tryon St & Herman Ave",,35.199097,-80.874804,
26080,"Tryon st & Clanton Rd",,35.195441,-80.877471,
26090,"Tryon St & Blairhill Rd",,35.195182,-80.877867,
26100,"Tryon St & Bowman Rd",,35.192812,-80.879733,
26110,"Tryon St & Bowman Rd",,35.192448,-80.879805,
26112,"Tryclan Dr & S Tryon St",,35.194448,-80.877350,
26130,"Tryon St & Cama St",,35.190718,-80.881158,
26140,"Tryon St & Cama St",,35.190831,-80.881284,
26160,"Tryon St & Peterson Dr",,35.189040,-80.882646,
26170,"Tryon St & Peterson Dr",,35.189040,-80.882478,
26180,"Tryon St & Orchard Cir",,35.187156,-80.883985,
26190,"Tryon St & Orchard Cir",,35.187193,-80.884109,
26210,"Tryon St & Pressley Rd",,35.185158,-80.885759,
26220,"Tryon St & Pressley Rd",,35.184605,-80.885978,
26360,"Tryon St @ Whitehall Commons entrance",,35.145070,-80.927579,
26370,"Tryon St & I-485",,35.143697,-80.929219,
26380,"Tryon St @ White Hall Commons",,35.144133,-80.928403,
26430,"Tryon St & Sandy Porter Rd",,35.134218,-80.939382,
26470,"Sam Drenan Rd & Stancill Pl",,35.197465,-80.806738,
26480,"Sam Drenan Rd & Orange St",,35.198841,-80.809414,
26490,"Sam Drenan Rd & Leroy St",,35.197617,-80.806702,
26700,"Sardis Rd North & Crownpoint Executive Dr",,35.145112,-80.727635,
26702,"Sardis Rd & Independence Blvd",,35.146531,-80.725087,
26750,"Scott Ave & Blythe Blvd",,35.204958,-80.840856,
26770,"Scott Ave & Pierce St",,35.203417,-80.841541,
26790,"Scott Ave & Filmore Ave",,35.201881,-80.842952,
26820,"Seigle Ave & Otts St",,35.226150,-80.824636,
26840,"10th St & Seigle Ave",,35.224095,-80.827304,
26850,"Seigle Ave & Greenway Crescent Ln",,35.224043,-80.826301,
26860,"Seigle Ave & Greenway Crescent Ln",,35.224305,-80.826212,
26870,"Seigle Ave & Otts St",,35.226157,-80.824552,
26890,"Seigle Ave & Belmont Ave",,35.228197,-80.822498,
26909,"Selwyn Ave @ Queens University",,35.188264,-80.831632,
26910,"Selwyn Ave @ Queens University",,35.187516,-80.832246,
26919,"Selwyn Ave & Westfield Rd",,35.183459,-80.835960,
26920,"Selwyn Ave & Westfield Rd",,35.184108,-80.835593,
26950,"Selwyn Ave & Sterling Rd",,35.179572,-80.837045,
26970,"Selwyn Ave & Sterling Rd",,35.179216,-80.836931,
27000,"Selwyn Ave & Tranquil Ave",,35.174757,-80.839337,
27010,"Selwyn Ave & Colony Rd",,35.174149,-80.840174,
27020,"Selwyn Ave & Hassell Pl",,35.172010,-80.840826,
27100,"Seymour Dr & Faber St",,35.217258,-80.906436,
27110,"Seymour Dr & Faber St",,35.217410,-80.907215,
27120,"Seymour Dr & Mayfair Ave",,35.217743,-80.907767,
27150,"Seymore & Plato",,35.219643,-80.911233,
27160,"Seymour & Plato",,35.219571,-80.911094,
27200,"Shamrock Dr & Airlie St",,35.235687,-80.785674,
27210,"Shamrock Dr & Hilliard Dr",,35.235538,-80.786089,
27220,"Shamrock Dr & Palm Ave",,35.236614,-80.784518,
27230,"Shamrock Dr & Elkwood Cir",,35.237359,-80.783975,
27240,"Shamrock Dr & Springway Dr",,35.238288,-80.782994,
27250,"Shamrock Dr & Connecticut Ave",,35.237994,-80.780023,
27255,"Shamrock Dr & Flamingo Av",,35.238580,-80.782024,
27260,"Shamrock Dr & Connecticut Ave",,35.238031,-80.779941,
27270,"Shamrock Dr & Cardiff Ave",,35.237446,-80.777858,
27275,"Shamrock Dr & Finchley Rd",,35.236176,-80.774139,
27280,"Shamrock Dr & Eastway Dr",,35.237056,-80.776747,
27290,"Shamrock Dr & Eastway Dr",,35.236283,-80.774690,
27300,"Shamrock Dr @ Windsor Harbor Apts",,35.234750,-80.771147,
27310,"Shamrock Dr & Finchley Dr",,35.235498,-80.773071,
27320,"Shamrock Dr @ Windsor Harbor Apts",,35.234480,-80.770796,
27330,"Shamrock Dr & Glenville Ave",,35.234376,-80.767960,
27340,"Shamrock Dr @ Charlotte Museum of History",,35.234361,-80.767250,
27350,"Shamrock Dr @ Wesley Nursing Home",,35.234885,-80.764310,
27360,"Shamrock Dr & Foxford Pl",,35.235109,-80.763689,
27370,"Shamrock Dr & Foxford Pl",,35.235056,-80.762180,
27380,"Shamrock Dr & Tipperary Pl",,35.234755,-80.760985,
27500,"Sharon Amity Rd & Randolph Rd",,35.175659,-80.799490,
27510,"Sharon Amity Rd @ 338 (UPS Store)",,35.174618,-80.802004,
27520,"Sharon Amity Rd & Hardwicke Rd",,35.176632,-80.795609,
27530,"Sharon Amity Rd & Randolph Rd",,35.175132,-80.800711,
27540,"Sharon Amity Rd & Hardwicke Rd",,35.176538,-80.796461,
27560,"Sharon Amity Rd @ 309 (Cotswold Plaza II)",,35.174608,-80.801790,
27570,"Sharon Amity Rd & Clover Rd",,35.173218,-80.804845,
27580,"Sharon Amity Rd & Water Oak Rd",,35.178959,-80.790262,
27590,"Sharon Amity Rd & Night Heron Ln",,35.178755,-80.791105,
27600,"Sharon Amity Rd & Crosby Rd",,35.172519,-80.806011,
27633,"Sharon Amity Rd & Lyttleton Dr",,35.177192,-80.783812,
27635,"Sharon Amity Rd & Lyttleton Dr",,35.177833,-80.784625,
27650,"Sharon Amity Rd & Tangle Dr",,35.178554,-80.779719,
27660,"Sharon Amity Rd & Delane Ave",,35.181657,-80.776537,
27670,"Sharon Amity Rd & Delane Ave",,35.181660,-80.776664,
27690,"Sharon Amity Rd & Montague St",,35.185451,-80.775086,
27700,"Sharon Amity Rd & Monroe Rd",,35.188731,-80.772915,
27730,"Sharon Amity Rd & Buena Vista Ave",,35.192349,-80.769070,
27760,"Sharon Amity Rd & Holbrook Dr",,35.195632,-80.765201,
27770,"Sharon Amity Rd & Amity Pl",,35.196838,-80.762770,
27780,"Sharon Amity Rd & Amity Springs Dr",,35.199228,-80.760927,
27790,"Sharon Amity Rd & Pierson Dr",,35.197120,-80.762635,
27800,"Sharon Amity Rd & Amity Springs Dr",,35.199104,-80.760776,
27810,"Sharon Amity Rd & Albemarle Rd",,35.201012,-80.760734,
27820,"Sharon Amity Rd & Albemarle Rd",,35.202435,-80.760380,
27830,"Sharon Amity Rd & Campbell Dr",,35.204185,-80.760018,
27840,"Sharon Amity Rd & Clearmont Ave",,35.206057,-80.758493,
27850,"Sharon Amity Rd & Clearmont Ave",,35.207082,-80.758137,
27860,"Sharon Amity Rd & Central Ave",,35.208195,-80.757563,
27870,"Sharon Amity Rd & Central Ave",,35.208656,-80.757605,
27890,"Sharon Amity Rd & Central Ave",,35.211151,-80.756647,
27910,"Sharon Amity Rd & Central Ave",,35.211779,-80.756564,
27920,"Sharon Amity Rd & Wilora Lake Rd",,35.214307,-80.755493,
27950,"Sharon Amity Rd & Auburndale Rd",,35.215568,-80.755266,
27970,"Sharon Amity Rd & Tarrywood Ln",,35.218552,-80.753674,
27980,"Sharon Amity Rd & Tarrywood Ln",,35.218741,-80.753646,
28000,"Sharon Amity Rd & Sudbury Rd",,35.219682,-80.752645,
28020,"Sharon Amity Rd & Abbeydale Dr",,35.220620,-80.751811,
28025,"Sharon Amity Rd & Twisted Oaks Rd",,35.222340,-80.750335,
28030,"Sharon Amity Rd & Hickory Grove Rd",,35.223183,-80.749814,
28050,"Sharon Amity Rd & Hickory Grove Rd",,35.224182,-80.748723,
28060,"Sharon Amity Rd & Shamrock Dr",,35.225897,-80.747575,
28070,"Sharon Amity Rd & Sharon Chase Dr",,35.229069,-80.744126,
28095,"Sharon Amity Rd & Shamrock Dr",,35.226318,-80.747644,
28100,"Sharon Amity Rd & Kimmerly Glen Ln",,35.230395,-80.741760,
28105,"Sharon Amity Rd & Sharon Chase Dr",,35.229227,-80.744222,
28115,"Sharon Amity Rd & Kimmerly Glen Ln",,35.229638,-80.743277,
28117,"Sharon Amity @ 5801",,35.235696,-80.738364,
28120,"Sharon Amity Rd & Milton Rd",,35.234155,-80.738601,
28125,"Sharon Amity Rd & Milton Rd",,35.234095,-80.738834,
28140,"Sharon Lakes Rd & Harvest Ln",,35.120477,-80.870152,
28145,"Sharon Lakes Rd & Smoke Ridge Ct",,35.120014,-80.869996,
28150,"Sharon Lakes Rd & Meadowlark Ln",,35.123291,-80.869621,
28170,"Sharon Lakes Rd & Shady Oak Trl",,35.125188,-80.872424,
28190,"Sharon Lakes Rd & South Blvd",,35.127578,-80.875533,
28200,"Sharon Lakes Rd & South Blvd",,35.127135,-80.874506,
28210,"Sharon Lakes Rd & Stoney Point Ln",,35.123259,-80.869597,
28220,"Sharon Lakes Rd & Sharon Rd West",,35.118672,-80.869780,
28320,"Sharon Rd West & Maggie Ln",,35.119070,-80.879907,
28330,"Sharon Rd West & Sharonbrook Dr",,35.118499,-80.878435,
28340,"Sharon Rd West & Sharonbrook Dr",,35.117573,-80.876142,
28350,"Sharon Rd West & Regent Park Ln",,35.117815,-80.873657,
28370,"Sharon Rd West & Sharon Lakes Rd",,35.118338,-80.871270,
28690,"Sharon Rd & Sharon View Rd",,35.143751,-80.833104,
28760,"Sharon Rd @ SouthPark Mall Entrance",,35.151465,-80.828559,
28810,"Sharon Rd & Coltsgate Rd",,35.148982,-80.830447,
28840,"Sharon Rd & Fairview Rd",,35.146937,-80.831760,
28850,"Sharon Rd & Fairview Rd",,35.146748,-80.831548,
28870,"Sharon Rd @ Sharon Towers Apts",,35.143740,-80.833318,
28874,"Sharon Rd @ Sharon Tower Apts",,35.142011,-80.834708,
28875,"Sharon Rd @ Sharon Presbyterian Church",,35.141602,-80.834888,
28880,"Sharon Rd & Sulkirk Rd",,35.138873,-80.838290,
28890,"Sharon Rd & Champaign St",,35.137955,-80.838660,
28915,"Sharon Rd & Coleman Cir",,35.134336,-80.839026,
28940,"Sharon Rd & Quail Hollow Rd",,35.132537,-80.840412,
28950,"Sharon Rd & Sharon Rd",,35.133407,-80.839203,
28970,"Sharon Rd & Sherbrooke Dr",,35.129657,-80.843287,
28980,"Sharon Rd & Sherbrooke Dr",,35.129497,-80.843474,
28990,"Sharon Rd & Sharon Commons Ln",,35.127970,-80.846109,
29000,"Sharon Rd & Sharon Acres Rd",,35.127856,-80.846183,
29030,"Sharon Rd & Greencastle Dr",,35.124243,-80.852253,
29032,"Sharon Rd & Greencastle Dr",,35.124359,-80.852003,
29040,"Sharon Rd West & Maggie Ln",,35.118742,-80.878722,
29060,"Sharon Rd West & Winter Oaks Ln",,35.117955,-80.876690,
29080,"Sharon Rd West & Regent Park Ln",,35.117774,-80.874361,
29100,"Sharon Rd West & Sharon Lakes Rd",,35.118429,-80.871296,
29130,"Skyland Ave & Sam Drenan Rd",,35.199245,-80.807109,
29140,"Skyland Ave & Marney Ave",,35.200485,-80.806139,
29150,"Skyland Ave @ 417",,35.201603,-80.805253,
29160,"Skyland Ave & Dunn Ave",,35.202395,-80.804668,
29260,"South Blvd & Templeton Ave",,35.216989,-80.851472,
29270,"South Blvd & Caldwell St",,35.217108,-80.851049,
29280,"South Blvd & Bland St",,35.215861,-80.852863,
29290,"South Blvd & Bland St",,35.215545,-80.853036,
29300,"South Blvd & Rensselaer Ave",,35.214764,-80.854482,
29310,"South Blvd & Rensselaer Ave",,35.214732,-80.854237,
29320,"South Blvd & Park Ave",,35.213305,-80.855882,
29330,"South Blvd & Kingston Ave",,35.213077,-80.856402,
29620,"South Blvd & Whitton St",,35.191070,-80.874596,
29630,"South Blvd & Old Pineville Rd",,35.187966,-80.875725,
29640,"South Blvd & Scaleybark Rd",,35.188378,-80.875570,
29650,"South Blvd @ 4200",,35.186075,-80.875735,
29660,"South Blvd @ 4203",,35.186071,-80.875638,
29690,"South Blvd & Briabend Dr",,35.181931,-80.875703,
29700,"South Blvd & Briabend Dr",,35.181922,-80.875800,
29710,"South Blvd @ 4555",,35.180309,-80.875736,
29720,"South Blvd & Sterling Dr",,35.179912,-80.875817,
29730,"South Blvd & Woodlawn Rd",,35.177563,-80.875947,
29740,"South Blvd & Woodlawn Rd",,35.177354,-80.875812,
29750,"South Blvd & Woodlawn Rd",,35.174512,-80.876028,
29760,"South Blvd & Inwood Dr",,35.174740,-80.875839,
29780,"South Blvd @ 4900 (ACME Southern)",,35.171415,-80.876020,
29790,"South Blvd & Seneca Pl",,35.169716,-80.876038,
29800,"South Blvd @ 5017 (Childcare Network)",,35.169487,-80.875942,
29810,"South Blvd & Seneca Pl",,35.167377,-80.876081,
29820,"South Blvd & Seneca Pl",,35.167562,-80.875975,
29830,"South Blvd & Tyvola Rd",,35.166131,-80.875975,
29840,"South Blvd & Tyvola Rd",,35.164530,-80.876220,
29850,"South Blvd & Grover Rd",,35.163162,-80.876212,
29860,"South Blvd & Tyvola Rd",,35.163184,-80.875967,
29870,"South Blvd @ 5540",,35.159839,-80.876242,
29880,"South Blvd @ 5601 (Rent-A-Center)",,35.160214,-80.876107,
29890,"South Blvd & Emerywood Dr",,35.157659,-80.876289,
29900,"South Blvd & Emerywood Dr",,35.157334,-80.876131,
29920,"South Blvd & Archdale Dr",,35.154233,-80.876354,
29930,"South Blvd & Archdale Dr",,35.153621,-80.876250,
29940,"South Blvd & Archdale Dr",,35.151724,-80.876383,
29950,"South Blvd & Wicker Dr",,35.149957,-80.876329,
29960,"South Blvd & Wicker Dr",,35.149263,-80.876430,
29970,"South Blvd @ 6500",,35.146165,-80.876486,
29980,"South Blvd & Wisteria Dr",,35.146656,-80.876357,
30000,"South Blvd & Edgewater Dr",,35.143078,-80.876566,
30010,"South Blvd & Edgewater Dr",,35.143284,-80.876397,
30020,"South Blvd & Larkfield Ln",,35.140435,-80.876478,
30030,"South Blvd & Arrowood Rd",,35.139072,-80.876644,
30040,"South Blvd & Starbrook Dr",,35.137146,-80.876138,
30060,"South Blvd & Starmount Cove Ln",,35.135795,-80.875870,
30070,"South Blvd & Hill Rd",,35.130369,-80.875604,
30080,"South Blvd & Hill Rd",,35.130407,-80.875702,
30150,"South Blvd @ 8916 (Hendrick Honda)",,35.115955,-80.883307,
30160,"South Blvd & Westinghouse Blvd",,35.112632,-80.883016,
30170,"South Blvd & Cressida Dr",,35.113794,-80.883137,
30180,"South Blvd & Longleaf Dr",,35.110304,-80.882416,
30190,"Southpark Community Transit Center",,35.153163,-80.831438,
30230,"Spring Garden Ln & Derrydowne Dr",,35.272241,-80.777237,
30240,"Spring Garden Ln & Snow White Ln",,35.270330,-80.777681,
30360,"Statesville Ave & Graham St",,35.239493,-80.836756,
30390,"Statesville Ave & Oliver St",,35.240770,-80.836811,
30400,"Statesville Ave & Callahan St",,35.244001,-80.836697,
30410,"Statesville Ave & Oaklawn Ave",,35.243886,-80.836486,
30430,"Statesville Ave & Oaklawn Ave",,35.245706,-80.836390,
30440,"Statesville Ave & Woodward Ave",,35.248427,-80.835882,
30460,"Statesville Ave & Kohler Ave",,35.250784,-80.835935,
30480,"Statesville Ave & Dearborn Ave",,35.252893,-80.835993,
30540,"Statesville Ave & Moretz Ave",,35.255634,-80.836121,
30580,"Statesville Ave & Atando Ave",,35.260449,-80.836923,
30590,"Statesville Ave & Whittington St",,35.264004,-80.837094,
30600,"Statesville Ave & Alma Ct",,35.266354,-80.837261,
30615,"Statesville Rd & Nevin Rd",,35.282080,-80.834812,
30616,"Statesville Rd & Nevin Rd",,35.282135,-80.834592,
30620,"Statesville Rd & Starita Rd",,35.278922,-80.834250,
30640,"Statesville Ave & Samuel St",,35.260457,-80.837015,
30650,"Statesville Ave & Whittington St",,35.264234,-80.837311,
30660,"Statesville Ave & Alma Ct",,35.266504,-80.837483,
30690,"Statesville Rd & Distribution Center Dr",,35.275650,-80.835497,
30695,"Statesville Rd & Burch Dr",,35.275825,-80.835183,
30760,"Stonewall St & Mint St",,35.225148,-80.850100,
30940,"Sugar Creek Rd & Tryon St",,35.259756,-80.794916,
30941,"Sugar Creek @ 127",,35.257013,-80.794349,
30942,"Sugar Creek & Greensboro St",,35.255447,-80.793504,
30950,"Sugar Creek Rd & Tryon St",,35.260173,-80.795153,
30951,"Sugar Creek @ 126",,35.256939,-80.794559,
30952,"Sugar Creek @ Greensboro St",,35.255034,-80.793460,
30960,"Sugar Creek Rd & Rolling Hill Dr",,35.261856,-80.795087,
30970,"Sugar Creek Rd & Glory St",,35.262046,-80.795232,
30980,"Sugar Creek Rd & Hondures Dr",,35.263168,-80.795002,
30990,"Sugar Creek Rd & Hondures Dr",,35.264089,-80.795129,
31000,"Sugar Creek Rd & Sofley Rd",,35.264933,-80.794930,
31010,"Sugar Creek Rd & Cinderella Rd",,35.265728,-80.795058,
31020,"Sugar Creek Rd & Argyle Dr West",,35.268068,-80.794617,
31030,"Sugar Creek Rd & Rutgers Ave",,35.268511,-80.794707,
31040,"Sugar Creek Rd & Munsee St",,35.269601,-80.794302,
31060,"Sugar Creek Rd & Munsee St",,35.270287,-80.794324,
31070,"Sugar Creek Rd & Hidden Valley Rd",,35.272200,-80.793753,
31080,"Sugar Creek Rd & Reagan Dr",,35.275220,-80.793367,
31140,"Sunset Rd & Hamilton Cir",,35.305893,-80.855466,
31150,"Sunset Rd & Northpark Blvd",,35.306180,-80.855077,
31160,"Sunset Rd & Banner Elk Dr",,35.306540,-80.852748,
31170,"Sunset Rd @ 4525",,35.306798,-80.852238,
31180,"Sunset Rd & Milhaven Ln",,35.308017,-80.843663,
31190,"Sunset Rd @ 5005",,35.308211,-80.843691,
31200,"Sunset Rd @ 5201",,35.308746,-80.841031,
31210,"Sunset Rd @ 5214",,35.308431,-80.841695,
31260,"Tarheel Rd & Hovis Rd",,35.266500,-80.900062,
31270,"Tarheel Rd & Exchange St",,35.266852,-80.903726,
31290,"Tennessee Ave & Honeywood Ave",,35.264107,-80.874286,
31300,"10th St & Seigle Ave",,35.224194,-80.827660,
31320,"The Plaza & Marguerite Ave",,35.233410,-80.806906,
31340,"The Plaza & Brook Rd",,35.236269,-80.802799,
31341,"The Plaza & Clemson Ave",,35.236651,-80.802255,
31350,"The Plaza & Holt St",,35.237081,-80.801059,
31370,"The Plaza & Matheson Ave",,35.237548,-80.800114,
31400,"The Plaza & 36th St",,35.241451,-80.796181,
31420,"The Plaza & Herrin Ave",,35.242489,-80.795139,
31430,"The Plaza & Anderson St",,35.243579,-80.794181,
31440,"The Plaza & Dade St",,35.244643,-80.792942,
31450,"The Plaza & Sweetbriar St",,35.245569,-80.791656,
31460,"The Plaza & Sweetbriar St",,35.245502,-80.791554,
31470,"The Plaza & Sugar Creek Rd",,35.246515,-80.788085,
31480,"The Plaza & Sugar Creek Rd",,35.246465,-80.788493,
31490,"The Plaza & Commercial Ave",,35.247662,-80.785598,
31500,"The Plaza & Trembeth Dr",,35.248053,-80.784997,
31520,"The Plaza & Blackwood Ave",,35.248729,-80.783477,
31540,"The Plaza & Eastway Dr",,35.249173,-80.781919,
31550,"The Plaza & Plaza Walk Dr",,35.250389,-80.778193,
31560,"The Plaza & Plaza Walk Dr",,35.249966,-80.779181,
31590,"The Plaza & Malibu Dr",,35.250744,-80.775589,
31600,"The Plaza & Vanderbrook Rd",,35.250228,-80.774455,
31610,"The Plaza & Highlake Dr",,35.250088,-80.773675,
31620,"The Plaza & Harwyn Dr",,35.249474,-80.772238,
31630,"The Plaza & Aintree Rd",,35.249360,-80.771388,
31640,"The Plaza & Glenfiddich Dr",,35.249167,-80.769581,
31650,"The Plaza & Glenfiddich Dr",,35.249308,-80.769175,
31660,"The Plaza & Lakedell Dr",,35.249227,-80.766809,
31670,"The Plaza & Lakedell Dr",,35.249366,-80.767401,
31690,"The Plaza & Shannonhouse Dr",,35.250139,-80.762142,
31700,"The Plaza & Shannonhouse Dr",,35.250197,-80.762434,
31720,"The Plaza & Vickery Dr",,35.250699,-80.760418,
31730,"The Plaza & Vickery Dr",,35.250900,-80.760255,
31740,"The Plaza & Frank Dr",,35.251128,-80.758749,
31750,"The Plaza & Cove Creek Dr",,35.251125,-80.757831,
31760,"The Plaza & Bridgeport Dr",,35.249579,-80.755265,
31770,"The Plaza & Ilford St",,35.249839,-80.755931,
31780,"The Plaza & Kildare Dr",,35.248591,-80.754008,
31800,"The Plaza & Milton Rd",,35.248117,-80.752989,
31810,"The Plaza & Fairmarket Pl",,35.250403,-80.748670,
31830,"The Plaza @ Family Dollar",,35.249037,-80.750403,
31840,"The Plaza @ 6301 (car wash)",,35.249211,-80.750470,
31850,"The Plaza & Barrington Dr",,35.250400,-80.748486,
31860,"The Plaza & McBride St",,35.251537,-80.746832,
31880,"The Plaza & Lake Dr",,35.253321,-80.744079,
31890,"The Plaza & McBride St",,35.252833,-80.745004,
31900,"The Plaza & Plaza Ln",,35.254335,-80.742573,
31910,"The Plaza & Karenstone Dr",,35.254337,-80.742419,
31930,"The Plaza & WT Harris Blvd",,35.256514,-80.738948,
31940,"The Plaza & Hunters Crossing Ln",,35.256632,-80.738971,
32120,"Thriftwood Dr & Interurban Ave",,35.259009,-80.903834,
32140,"Thriftwood Dr & Marble St",,35.256875,-80.902819,
32150,"Thriftwood Dr & Freedom Dr",,35.254544,-80.903039,
32160,"Tipperary Pl & Stonehaven Dr",,35.235133,-80.760323,
32180,"Tipperary Pl & Foxford Pl",,35.237679,-80.759320,
32190,"Tipperary Pl & Foxford Pl",,35.237637,-80.759362,
32250,"Tipperary Pl & Bankston Pl",,35.238812,-80.757753,
32260,"Tipperary Pl & Slagle Dr",,35.239207,-80.756469,
32290,"Tipperary Pl & Slagle Dr",,35.239234,-80.756509,
32300,"Tipperary Pl & Vinetta Ct",,35.240492,-80.754249,
32310,"Tipperary Pl & Marbetta Ln",,35.241391,-80.752615,
32330,"Tipperary Pl & Vinetta Ct",,35.240585,-80.754261,
32350,"Tipperary Pl & Marbetta Ln",,35.241255,-80.753146,
32370,"Tipperary Pl & Milton Rd",,35.242103,-80.751584,
32437,"Tuckaseegee Rd & Burkholder Rd",,35.244832,-80.933888,
32455,"Tom Hunter Rd & Echo Glen Rd",,35.278177,-80.782549,
32470,"Tom Hunter Rd & White Plains Rd",,35.276857,-80.788048,
32480,"Tom Hunter Rd & Vancouver Dr",,35.277258,-80.789196,
32490,"Tom Hunter Rd & Reagan Dr",,35.278874,-80.790164,
32550,"Transit Center- Bay X",,35.224447,-80.841852,
32590,"Tuckaseegee Rd & Parkway Ave",,35.242556,-80.879032,
32600,"Tuckaseegee Rd & Coker St",,35.242500,-80.879102,
32610,"Tuckaseegee Rd & Enderly Rd",,35.243433,-80.881146,
32620,"Tuckaseegee Rd & Enderly Rd",,35.243314,-80.881006,
32630,"Tuckaseegee Rd & McQuay St",,35.243939,-80.882197,
32640,"Tuckaseegee Rd & Karendale Ave",,35.244108,-80.882792,
32650,"Tuckaseegee Rd & Karendale Ave",,35.244697,-80.883677,
32660,"Tuckaseegee Rd & Glenwood Dr",,35.245457,-80.885665,
32670,"Tuckaseegee Rd & Glenwood Dr",,35.245609,-80.885816,
32675,"Tuckaseegee Rd & Hazel St",,35.245974,-80.888539,
32685,"Tuckaseegee Rd & Hazel St",,35.246081,-80.888146,
32700,"Tuckaseegee Rd & Tennyson Dr",,35.246557,-80.891094,
32720,"Tuckaseegee Rd & I-85",,35.246042,-80.898506,
32730,"Tuckaseegee Rd & Edgewood Rd",,35.246215,-80.898848,
32736,"Tuckaseegee Rd & Ashley Rd",,35.245163,-80.896349,
32740,"Tuckaseegee Rd & Cheshire Ave",,35.246726,-80.902207,
32750,"Tuckaseegee Rd & J Julian Ln",,35.248180,-80.907785,
32751,"Tuckaseegee Rd & Timberbrook Dr",,35.248530,-80.908615,
32760,"Tuckaseegee Rd & Mulberry Pond Dr",,35.248326,-80.910655,
32761,"Tuckaseegee Rd & Mulberry Pond Dr",,35.248487,-80.910627,
32770,"Tuckaseegee Rd & Heather Glen Ln",,35.246363,-80.915615,
32771,"Tuckaseegee Rd & Heather Glen Ln",,35.246685,-80.915076,
32780,"Tuckaseegee Rd & Forestbrook Dr",,35.245071,-80.917762,
32781,"Tuckaseegee Rd & Mulberry Church Rd",,35.244730,-80.919648,
32791,"Tuckaseegee Rd & Toddville Rd",,35.244684,-80.926326,
32870,"Tyvola Rd & I-77",,35.163530,-80.892480,
32880,"Tyvola Rd & Westpark Dr",,35.163189,-80.886647,
32890,"Tyvola Rd & 77 Center Dr",,35.163968,-80.884975,
32900,"Tyvola Rd & I-77",,35.163762,-80.892311,
32910,"Tyvola Rd & 77 Center Dr",,35.164188,-80.884813,
32990,"Marion Diehl",,35.160252,-80.859735,
33010,"UNCC- Mary Alexander Rd & Van Landingham Rd",,35.305375,-80.727438,
33030,"University City Blvd & Broadrick Blvd",,35.302689,-80.729121,
33035,"University City Blvd & Mark Twain Rd",,35.299801,-80.734196,
33050,"University City Blvd @ Town Center Plaza",,35.296964,-80.740419,
33060,"University City Blvd & WT Harris Blvd",,35.297473,-80.740010,
33080,"Valen Way & Mt Kisco Dr",,35.272886,-80.785103,
33150,"5th St & Irwin Ave",,35.235712,-80.851682,
33151,"5th St & Irwin Ave",,35.235820,-80.851622,
33200,"5th St & Frazier Ave",,35.239370,-80.856519,
33210,"5th St & Frazier Ave",,35.239286,-80.856246,
33240,"5th St & Trade St",,35.241335,-80.858142,
33250,"4th St Ext & Victoria Ave",,35.232935,-80.853408,
33260,"4th St Ext & Victoria Ave",,35.232870,-80.853825,
33270,"4th St Ext & Sycamore St",,35.233030,-80.855447,
33280,"4th St Ext & Sycamore St",,35.233135,-80.855406,
33320,"4th St Ext & Grandin Rd",,35.234930,-80.860732,
33330,"4th St Ext & Grandin Rd",,35.235190,-80.861515,
33335,"4th St Ext & Wesley Heights Way",,35.236788,-80.864266,
33336,"Tuckaseegee Rd & Wesley Heights Way",,35.236749,-80.864902,
33351,"Cedar St @ Dove's Nest",,35.229025,-80.854177,
33371,"Morehead St & Millerton Ave",,35.227854,-80.872959,
33430,"Morehead St & Grandin Rd",,35.229100,-80.865636,
33440,"Morehead St & Grandin Rd",,35.229209,-80.864629,
33470,"Morehead St & Millerton Av",,35.227999,-80.872411,
33520,"36th St & Alexander St",,35.246499,-80.803046,
33530,"36th St & Spencer St",,35.245192,-80.801506,
33540,"36th St & Charles Ave",,35.244170,-80.800300,
33550,"36th St & Holt St",,35.242557,-80.798369,
33560,"36th St & The Plaza",,35.241362,-80.797006,
33570,"Trade St & Tryon St",,35.227302,-80.843420,
33640,"Trade St & Church St",,35.228432,-80.844467,
33680,"Trade St & Pine St",,35.229409,-80.845478,
33690,"Trade St & Graham St",,35.230300,-80.846513,
33710,"Trade St & Graham St",,35.230725,-80.847313,
33720,"Trade St & Wilkes Pl",,35.231219,-80.847562,
33750,"Trade St & Cedar St",,35.232522,-80.849497,
33770,"Trade St & Cedar St",,35.233593,-80.850641,
33831,"Trade St & Frazier Ave",,35.237020,-80.858519,
33840,"Trade St & Montgomery St",,35.238999,-80.858477,
33842,"Trade St & 5th St",,35.241040,-80.858510,
33890,"Tyvola Rd & North Falls Dr",,35.186907,-80.921594,
33891,"Tyvola Rd & North Falls Dr",,35.186246,-80.920987,
33980,"Watson St & Griffith St",,35.502192,-80.850484,
33990,"Welling Ave & Hoskins Rd",,35.261215,-80.890640,
34070,"West Blvd & Worthington Ave",,35.216170,-80.867761,
34080,"West Blvd & Merriman Ave",,35.217066,-80.869744,
34100,"West Blvd & Merriman Ave",,35.217091,-80.870066,
34120,"West Blvd & I-77",,35.217618,-80.870809,
34140,"West Blvd & Barringer Dr",,35.217803,-80.873944,
34150,"West Blvd & Barringer Dr",,35.217690,-80.873583,
34160,"West Blvd @ 1150",,35.217213,-80.875832,
34170,"West Blvd @ 1238",,35.216924,-80.877627,
34180,"West Blvd @ Greater Mt Sinai Baptist",,35.216810,-80.877742,
34190,"West Blvd & Fordham Rd",,35.216715,-80.880144,
34200,"West Blvd & Fordham Rd",,35.216798,-80.880294,
34210,"West Blvd @ 1520",,35.216602,-80.882101,
34220,"West Blvd & Remount Rd",,35.216314,-80.882774,
34230,"West Blvd & Beech Nut Rd",,35.215132,-80.887029,
34250,"West Blvd & Remount Rd",,35.216118,-80.884236,
34260,"West Blvd @ 1603",,35.215923,-80.884553,
34300,"West Blvd & Dr Carver Rd",,35.214401,-80.888566,
34320,"West Blvd & Walton Rd",,35.213196,-80.891495,
34330,"West Blvd & Dr Carver Rd",,35.214375,-80.889022,
34340,"West Blvd & Walton Rd",,35.213460,-80.891287,
34360,"West Blvd & Donald Ross Rd",,35.212396,-80.893955,
34400,"West Blvd & Romare Bearden Dr",,35.211681,-80.895773,
34420,"West Blvd & Romare Bearden Dr",,35.211918,-80.895367,
34440,"West Blvd & James St",,35.211649,-80.897631,
34450,"West Blvd & Amay James Ave",,35.211444,-80.901544,
34480,"West Blvd & Elmin St",,35.211588,-80.899565,
34500,"West Blvd & Ross Ave",,35.211500,-80.898196,
34520,"West Blvd & Morning Dr",,35.211450,-80.899967,
34540,"West Blvd & Amay James Ave",,35.211237,-80.901978,
34560,"West Blvd & Tyvola Rd",,35.210847,-80.904259,
34580,"West Blvd & Walter St",,35.211130,-80.903462,
34610,"West Blvd & Old Steele Creek Rd",,35.210363,-80.907023,
34620,"West Blvd & Old Steele Creek Rd",,35.210388,-80.907561,
34650,"West Blvd & Kenhill Dr",,35.209682,-80.910332,
34670,"West Blvd & Kenhill Dr",,35.210169,-80.908893,
34690,"West Blvd @ 2838",,35.209619,-80.911151,
34710,"West Blvd & Holabird Ln",,35.208551,-80.914659,
34750,"West Blvd & Renaissance Way",,35.206900,-80.919961,
34760,"West Blvd & Leake St",,35.207895,-80.916626,
34790,"West Blvd & Holabird Ln",,35.208406,-80.914567,
34850,"West Blvd & Airport Dr",,35.204510,-80.926253,
34860,"West Blvd & Airport Dr",,35.204385,-80.926006,
34870,"West Blvd & Horseshoe Ln",,35.198140,-80.931081,
34880,"West Blvd & Horseshoe Ln",,35.198030,-80.931051,
34940,"Westinghouse Blvd @ 1200",,35.119776,-80.932510,
34960,"Westinghouse Blvd & Cordage St",,35.122266,-80.933880,
34970,"Westinghouse Blvd & South Commerce Blvd",,35.124947,-80.935342,
34980,"Westinghouse Blvd & Brookford St",,35.125475,-80.935833,
34985,"Westinghouse Bv & S Tryon St",,35.130255,-80.944472,
34990,"Westinghouse Blvd & Tryon St",,35.129262,-80.940308,
35000,"Westinghouse Blvd & Tryon St",,35.129351,-80.939440,
35050,"Wheatley Ave & Bunche Dr",,35.194422,-80.804558,
35060,"Wheatley Ave & Bunche Dr",,35.194259,-80.803681,
35070,"Wheatley Ave & Ellington St",,35.194075,-80.802462,
35080,"Wheatley Ave & Ellington St",,35.194186,-80.802698,
35170,"Wilkinson Blvd & Remount Rd",,35.223984,-80.884354,
35180,"Wilkinson Blvd & Ashley Rd",,35.224522,-80.893754,
35210,"Wilkinson Blvd & Donald Ross Rd",,35.224378,-80.896171,
35230,"Wilkinson Blvd & Old Steele Creek Rd",,35.224675,-80.899166,
35250,"Wilkinson Blvd & Midland Ave",,35.224947,-80.904943,
35260,"Wilkinson Blvd & Midland Ave",,35.225102,-80.904917,
35280,"Wilkinson Blvd & Morris Field Dr",,35.226444,-80.910532,
35290,"Wilkinson Blvd & Morris Field Dr",,35.225963,-80.909148,
35300,"Wilkinson Blvd & Alleghany St",,35.227873,-80.913911,
35310,"Wilkinson Blvd & Boyer St",,35.232551,-80.925771,
35320,"Wilkinson Blvd & Harlee Ave",,35.233754,-80.932667,
35440,"Woodland Dr & Commonwealth Ave",,35.208034,-80.789876,
35450,"Woodland Dr & Oakmont Ave",,35.208378,-80.788002,
35460,"Woodland Dr @ 1310",,35.208434,-80.787581,
35470,"Woodland Dr & Eastway Dr",,35.208083,-80.784352,
35480,"Woodland Dr & Eastway Dr",,35.208075,-80.784134,
35550,"Woodland Dr & Commonwealth Ave",,35.208053,-80.789528,
35570,"Woodlawn Rd & Nations Crossing Rd",,35.179186,-80.884195,
